[
    {
        "geonameid": 291074,
        "name": "Ra\u2019s al Khaymah",
        "ascii": "Ra's al Khaymah",
        "country": "AE",
        "lat": 25.78953,
        "lon": 55.9432,
        "population": 115949,
        "timezone": "Asia/Dubai"
    },
    {
        "geonameid": 292223,
        "name": "Dubai",
        "ascii": "Dubai",
        "country": "AE",
        "lat": 25.25817,
        "lon": 55.30472,
        "population": 1137347,
        "timezone": "Asia/Dubai"
    },
    {
        "geonameid": 292672,
        "name": "Sharjah",
        "ascii": "Sharjah",
        "country": "AE",
        "lat": 25.33737,
        "lon": 55.41206,
        "population": 543733,
        "timezone": "Asia/Dubai"
    },
    {
        "geonameid": 292878,
        "name": "Al Fujayrah",
        "ascii": "Al Fujayrah",
        "country": "AE",
        "lat": 25.11641,
        "lon": 56.34141,
        "population": 62415,
        "timezone": "Asia/Dubai"
    },
    {
        "geonameid": 292913,
        "name": "Al Ain",
        "ascii": "Al Ain",
        "country": "AE",
        "lat": 24.19167,
        "lon": 55.76056,
        "population": 408733,
        "timezone": "Asia/Dubai"
    },
    {
        "geonameid": 292932,
        "name": "Ajman",
        "ascii": "Ajman",
        "country": "AE",
        "lat": 25.41111,
        "lon": 55.43504,
        "population": 226172,
        "timezone": "Asia/Dubai"
    },
    {
        "geonameid": 292968,
        "name": "Abu Dhabi",
        "ascii": "Abu Dhabi",
        "country": "AE",
        "lat": 24.46667,
        "lon": 54.36667,
        "population": 603492,
        "timezone": "Asia/Dubai"
    },
    {
        "geonameid": 1123004,
        "name": "Taloqan",
        "ascii": "Taloqan",
        "country": "AF",
        "lat": 36.73605,
        "lon": 69.53451,
        "population": 64256,
        "timezone": "Asia/Kabul"
    },
    {
        "geonameid": 1125444,
        "name": "Shibirgh\u0101n",
        "ascii": "Shibirghan",
        "country": "AF",
        "lat": 36.66757,
        "lon": 65.7529,
        "population": 55641,
        "timezone": "Asia/Kabul"
    },
    {
        "geonameid": 1127110,
        "name": "Sar-e Pul",
        "ascii": "Sar-e Pul",
        "country": "AF",
        "lat": 36.21544,
        "lon": 65.93249,
        "population": 52121,
        "timezone": "Asia/Kabul"
    },
    {
        "geonameid": 1130490,
        "name": "Pul-e Khumr\u012b",
        "ascii": "Pul-e Khumri",
        "country": "AF",
        "lat": 35.94458,
        "lon": 68.71512,
        "population": 56369,
        "timezone": "Asia/Kabul"
    },
    {
        "geonameid": 1133453,
        "name": "Maymana",
        "ascii": "Maymana",
        "country": "AF",
        "lat": 35.92139,
        "lon": 64.78361,
        "population": 75900,
        "timezone": "Asia/Kabul"
    },
    {
        "geonameid": 1133616,
        "name": "Maz\u0101r-e Shar\u012bf",
        "ascii": "Mazar-e Sharif",
        "country": "AF",
        "lat": 36.70904,
        "lon": 67.11087,
        "population": 303282,
        "timezone": "Asia/Kabul"
    },
    {
        "geonameid": 1135689,
        "name": "Kunduz",
        "ascii": "Kunduz",
        "country": "AF",
        "lat": 36.72896,
        "lon": 68.857,
        "population": 161902,
        "timezone": "Asia/Kabul"
    },
    {
        "geonameid": 1136469,
        "name": "Kh\u014dst",
        "ascii": "Khost",
        "country": "AF",
        "lat": 33.33951,
        "lon": 69.92041,
        "population": 96123,
        "timezone": "Asia/Kabul"
    },
    {
        "geonameid": 1136575,
        "name": "Khulm",
        "ascii": "Khulm",
        "country": "AF",
        "lat": 36.69736,
        "lon": 67.69826,
        "population": 64933,
        "timezone": "Asia/Kabul"
    },
    {
        "geonameid": 1137168,
        "name": "Khanabad",
        "ascii": "Khanabad",
        "country": "AF",
        "lat": 36.6825,
        "lon": 69.11556,
        "population": 71531,
        "timezone": "Asia/Kabul"
    },
    {
        "geonameid": 1138336,
        "name": "Kandah\u0101r",
        "ascii": "Kandahar",
        "country": "AF",
        "lat": 31.61332,
        "lon": 65.71013,
        "population": 391190,
        "timezone": "Asia/Kabul"
    },
    {
        "geonameid": 1138958,
        "name": "Kabul",
        "ascii": "Kabul",
        "country": "AF",
        "lat": 34.52813,
        "lon": 69.17233,
        "population": 3043532,
        "timezone": "Asia/Kabul"
    },
    {
        "geonameid": 1139715,
        "name": "Jal\u0101l\u0101b\u0101d",
        "ascii": "Jalalabad",
        "country": "AF",
        "lat": 34.42647,
        "lon": 70.45153,
        "population": 200331,
        "timezone": "Asia/Kabul"
    },
    {
        "geonameid": 1140026,
        "name": "Her\u0101t",
        "ascii": "Herat",
        "country": "AF",
        "lat": 34.34817,
        "lon": 62.19967,
        "population": 272806,
        "timezone": "Asia/Kabul"
    },
    {
        "geonameid": 1141269,
        "name": "Ghazni",
        "ascii": "Ghazni",
        "country": "AF",
        "lat": 33.55391,
        "lon": 68.42096,
        "population": 141000,
        "timezone": "Asia/Kabul"
    },
    {
        "geonameid": 1141857,
        "name": "Gard\u0113z",
        "ascii": "Gardez",
        "country": "AF",
        "lat": 33.59744,
        "lon": 69.22592,
        "population": 103601,
        "timezone": "Asia/Kabul"
    },
    {
        "geonameid": 1145352,
        "name": "Charikar",
        "ascii": "Charikar",
        "country": "AF",
        "lat": 35.01361,
        "lon": 69.17139,
        "population": 53676,
        "timezone": "Asia/Kabul"
    },
    {
        "geonameid": 1147242,
        "name": "B\u0101my\u0101n",
        "ascii": "Bamyan",
        "country": "AF",
        "lat": 34.82156,
        "lon": 67.82734,
        "population": 61863,
        "timezone": "Asia/Kabul"
    },
    {
        "geonameid": 1147290,
        "name": "Balkh",
        "ascii": "Balkh",
        "country": "AF",
        "lat": 36.75635,
        "lon": 66.8972,
        "population": 114883,
        "timezone": "Asia/Kabul"
    },
    {
        "geonameid": 1147540,
        "name": "Baghl\u0101n",
        "ascii": "Baghlan",
        "country": "AF",
        "lat": 36.13068,
        "lon": 68.70829,
        "population": 108449,
        "timezone": "Asia/Kabul"
    },
    {
        "geonameid": 1429434,
        "name": "B\u0101z\u0101rak",
        "ascii": "Bazarak",
        "country": "AF",
        "lat": 35.31292,
        "lon": 69.51519,
        "population": 65000,
        "timezone": "Asia/Kabul"
    },
    {
        "geonameid": 6692413,
        "name": "Cool \u0171rhaj\u00f3",
        "ascii": "Cool urhajo",
        "country": "AF",
        "lat": 34.26545,
        "lon": 67.34516,
        "population": 58525,
        "timezone": "Asia/Kabul"
    },
    {
        "geonameid": 782756,
        "name": "Kor\u00e7\u00eb",
        "ascii": "Korce",
        "country": "AL",
        "lat": 40.61861,
        "lon": 20.78083,
        "population": 58259,
        "timezone": "Europe/Tirane"
    },
    {
        "geonameid": 783263,
        "name": "Elbasan",
        "ascii": "Elbasan",
        "country": "AL",
        "lat": 41.1125,
        "lon": 20.08222,
        "population": 100903,
        "timezone": "Europe/Tirane"
    },
    {
        "geonameid": 3183719,
        "name": "Vlor\u00eb",
        "ascii": "Vlore",
        "country": "AL",
        "lat": 40.46667,
        "lon": 19.48972,
        "population": 89546,
        "timezone": "Europe/Tirane"
    },
    {
        "geonameid": 3183875,
        "name": "Tirana",
        "ascii": "Tirana",
        "country": "AL",
        "lat": 41.3275,
        "lon": 19.81889,
        "population": 374801,
        "timezone": "Europe/Tirane"
    },
    {
        "geonameid": 3184081,
        "name": "Shkod\u00ebr",
        "ascii": "Shkoder",
        "country": "AL",
        "lat": 42.06828,
        "lon": 19.51258,
        "population": 88245,
        "timezone": "Europe/Tirane"
    },
    {
        "geonameid": 3185670,
        "name": "Fier-\u00c7if\u00e7i",
        "ascii": "Fier-Cifci",
        "country": "AL",
        "lat": 40.71667,
        "lon": 19.56667,
        "population": 60995,
        "timezone": "Europe/Tirane"
    },
    {
        "geonameid": 3185672,
        "name": "Fier",
        "ascii": "Fier",
        "country": "AL",
        "lat": 40.72389,
        "lon": 19.55611,
        "population": 56297,
        "timezone": "Europe/Tirane"
    },
    {
        "geonameid": 3185728,
        "name": "Durr\u00ebs",
        "ascii": "Durres",
        "country": "AL",
        "lat": 41.32306,
        "lon": 19.44139,
        "population": 122034,
        "timezone": "Europe/Tirane"
    },
    {
        "geonameid": 616052,
        "name": "Yerevan",
        "ascii": "Yerevan",
        "country": "AM",
        "lat": 40.18111,
        "lon": 44.51361,
        "population": 1093485,
        "timezone": "Asia/Yerevan"
    },
    {
        "geonameid": 616530,
        "name": "Vanadzor",
        "ascii": "Vanadzor",
        "country": "AM",
        "lat": 40.80456,
        "lon": 44.4939,
        "population": 101098,
        "timezone": "Asia/Yerevan"
    },
    {
        "geonameid": 616635,
        "name": "Gyumri",
        "ascii": "Gyumri",
        "country": "AM",
        "lat": 40.7942,
        "lon": 43.84528,
        "population": 148381,
        "timezone": "Asia/Yerevan"
    },
    {
        "geonameid": 2236568,
        "name": "U\u00edge",
        "ascii": "Uige",
        "country": "AO",
        "lat": -7.60874,
        "lon": 15.06131,
        "population": 60008,
        "timezone": "Africa/Luanda"
    },
    {
        "geonameid": 2236967,
        "name": "Soio",
        "ascii": "Soio",
        "country": "AO",
        "lat": -6.1349,
        "lon": 12.36894,
        "population": 67491,
        "timezone": "Africa/Luanda"
    },
    {
        "geonameid": 2239076,
        "name": "N\u2019dalatando",
        "ascii": "N'dalatando",
        "country": "AO",
        "lat": -9.29782,
        "lon": 14.91162,
        "population": 383100,
        "timezone": "Africa/Luanda"
    },
    {
        "geonameid": 2239862,
        "name": "Malanje",
        "ascii": "Malanje",
        "country": "AO",
        "lat": -9.54015,
        "lon": 16.34096,
        "population": 87046,
        "timezone": "Africa/Luanda"
    },
    {
        "geonameid": 2240449,
        "name": "Luanda",
        "ascii": "Luanda",
        "country": "AO",
        "lat": -8.83682,
        "lon": 13.23432,
        "population": 2776168,
        "timezone": "Africa/Luanda"
    },
    {
        "geonameid": 2243271,
        "name": "Cabinda",
        "ascii": "Cabinda",
        "country": "AO",
        "lat": -5.55,
        "lon": 12.2,
        "population": 66020,
        "timezone": "Africa/Luanda"
    },
    {
        "geonameid": 3347019,
        "name": "Mo\u00e7\u00e2medes",
        "ascii": "Mocamedes",
        "country": "AO",
        "lat": -15.19611,
        "lon": 12.15222,
        "population": 80149,
        "timezone": "Africa/Luanda"
    },
    {
        "geonameid": 3347762,
        "name": "Lubango",
        "ascii": "Lubango",
        "country": "AO",
        "lat": -14.91717,
        "lon": 13.4925,
        "population": 102541,
        "timezone": "Africa/Luanda"
    },
    {
        "geonameid": 3347939,
        "name": "Lobito",
        "ascii": "Lobito",
        "country": "AO",
        "lat": -12.3644,
        "lon": 13.53601,
        "population": 207932,
        "timezone": "Africa/Luanda"
    },
    {
        "geonameid": 3348078,
        "name": "Cuito",
        "ascii": "Cuito",
        "country": "AO",
        "lat": -12.38333,
        "lon": 16.93333,
        "population": 113624,
        "timezone": "Africa/Luanda"
    },
    {
        "geonameid": 3348313,
        "name": "Huambo",
        "ascii": "Huambo",
        "country": "AO",
        "lat": -12.77611,
        "lon": 15.73917,
        "population": 226145,
        "timezone": "Africa/Luanda"
    },
    {
        "geonameid": 3351663,
        "name": "Benguela",
        "ascii": "Benguela",
        "country": "AO",
        "lat": -12.57626,
        "lon": 13.40547,
        "population": 151226,
        "timezone": "Africa/Luanda"
    },
    {
        "geonameid": 3427213,
        "name": "Z\u00e1rate",
        "ascii": "Zarate",
        "country": "AR",
        "lat": -34.09814,
        "lon": -59.02858,
        "population": 88781,
        "timezone": "America/Argentina/Buenos_Aires"
    },
    {
        "geonameid": 3427408,
        "name": "Villa Lugano",
        "ascii": "Villa Lugano",
        "country": "AR",
        "lat": -34.67907,
        "lon": -58.47262,
        "population": 114000,
        "timezone": "America/Argentina/Buenos_Aires"
    },
    {
        "geonameid": 3427833,
        "name": "Tandil",
        "ascii": "Tandil",
        "country": "AR",
        "lat": -37.32167,
        "lon": -59.13316,
        "population": 104325,
        "timezone": "America/Argentina/Buenos_Aires"
    },
    {
        "geonameid": 3429577,
        "name": "Resistencia",
        "ascii": "Resistencia",
        "country": "AR",
        "lat": -27.46056,
        "lon": -58.98389,
        "population": 387158,
        "timezone": "America/Argentina/Cordoba"
    },
    {
        "geonameid": 3429594,
        "name": "Reconquista",
        "ascii": "Reconquista",
        "country": "AR",
        "lat": -29.15,
        "lon": -59.65,
        "population": 90184,
        "timezone": "America/Argentina/Cordoba"
    },
    {
        "geonameid": 3429652,
        "name": "Quilmes",
        "ascii": "Quilmes",
        "country": "AR",
        "lat": -34.72418,
        "lon": -58.25265,
        "population": 518788,
        "timezone": "America/Argentina/Buenos_Aires"
    },
    {
        "geonameid": 3429790,
        "name": "Puerto Eldorado",
        "ascii": "Puerto Eldorado",
        "country": "AR",
        "lat": -26.40842,
        "lon": -54.69463,
        "population": 54189,
        "timezone": "America/Argentina/Cordoba"
    },
    {
        "geonameid": 3429886,
        "name": "Posadas",
        "ascii": "Posadas",
        "country": "AR",
        "lat": -27.36708,
        "lon": -55.89608,
        "population": 312060,
        "timezone": "America/Argentina/Cordoba"
    },
    {
        "geonameid": 3430340,
        "name": "Ober\u00e1",
        "ascii": "Obera",
        "country": "AR",
        "lat": -27.48706,
        "lon": -55.11994,
        "population": 56528,
        "timezone": "America/Argentina/Cordoba"
    },
    {
        "geonameid": 3430443,
        "name": "Necochea",
        "ascii": "Necochea",
        "country": "AR",
        "lat": -38.54726,
        "lon": -58.73675,
        "population": 80478,
        "timezone": "America/Argentina/Buenos_Aires"
    },
    {
        "geonameid": 3430545,
        "name": "Mor\u00f3n",
        "ascii": "Moron",
        "country": "AR",
        "lat": -34.65344,
        "lon": -58.61975,
        "population": 319934,
        "timezone": "America/Argentina/Buenos_Aires"
    },
    {
        "geonameid": 3430708,
        "name": "Mercedes",
        "ascii": "Mercedes",
        "country": "AR",
        "lat": -34.65146,
        "lon": -59.43068,
        "population": 52949,
        "timezone": "America/Argentina/Buenos_Aires"
    },
    {
        "geonameid": 3430863,
        "name": "Mar del Plata",
        "ascii": "Mar del Plata",
        "country": "AR",
        "lat": -38.00228,
        "lon": -57.55754,
        "population": 553935,
        "timezone": "America/Argentina/Buenos_Aires"
    },
    {
        "geonameid": 3430988,
        "name": "Luj\u00e1n",
        "ascii": "Lujan",
        "country": "AR",
        "lat": -34.57028,
        "lon": -59.105,
        "population": 81749,
        "timezone": "America/Argentina/Buenos_Aires"
    },
    {
        "geonameid": 3432043,
        "name": "La Plata",
        "ascii": "La Plata",
        "country": "AR",
        "lat": -34.92145,
        "lon": -57.95453,
        "population": 694167,
        "timezone": "America/Argentina/Buenos_Aires"
    },
    {
        "geonameid": 3433658,
        "name": "Gualeguaych\u00fa",
        "ascii": "Gualeguaychu",
        "country": "AR",
        "lat": -33.00938,
        "lon": -58.51722,
        "population": 78676,
        "timezone": "America/Argentina/Cordoba"
    },
    {
        "geonameid": 3433715,
        "name": "Goya",
        "ascii": "Goya",
        "country": "AR",
        "lat": -29.14003,
        "lon": -59.26256,
        "population": 70245,
        "timezone": "America/Argentina/Cordoba"
    },
    {
        "geonameid": 3433899,
        "name": "Formosa",
        "ascii": "Formosa",
        "country": "AR",
        "lat": -26.17753,
        "lon": -58.17814,
        "population": 221383,
        "timezone": "America/Argentina/Cordoba"
    },
    {
        "geonameid": 3435217,
        "name": "Corrientes",
        "ascii": "Corrientes",
        "country": "AR",
        "lat": -27.4806,
        "lon": -58.8341,
        "population": 339067,
        "timezone": "America/Argentina/Cordoba"
    },
    {
        "geonameid": 3435261,
        "name": "Concordia",
        "ascii": "Concordia",
        "country": "AR",
        "lat": -31.39296,
        "lon": -58.02089,
        "population": 145210,
        "timezone": "America/Argentina/Cordoba"
    },
    {
        "geonameid": 3435264,
        "name": "Concepci\u00f3n del Uruguay",
        "ascii": "Concepcion del Uruguay",
        "country": "AR",
        "lat": -32.48249,
        "lon": -58.23722,
        "population": 67895,
        "timezone": "America/Argentina/Cordoba"
    },
    {
        "geonameid": 3435356,
        "name": "Colegiales",
        "ascii": "Colegiales",
        "country": "AR",
        "lat": -34.57365,
        "lon": -58.44924,
        "population": 57000,
        "timezone": "America/Argentina/Buenos_Aires"
    },
    {
        "geonameid": 3435810,
        "name": "Campana",
        "ascii": "Campana",
        "country": "AR",
        "lat": -34.16874,
        "lon": -58.95914,
        "population": 81612,
        "timezone": "America/Argentina/Buenos_Aires"
    },
    {
        "geonameid": 3435910,
        "name": "Buenos Aires",
        "ascii": "Buenos Aires",
        "country": "AR",
        "lat": -34.61315,
        "lon": -58.37723,
        "population": 13076300,
        "timezone": "America/Argentina/Buenos_Aires"
    },
    {
        "geonameid": 3436124,
        "name": "Barranqueras",
        "ascii": "Barranqueras",
        "country": "AR",
        "lat": -27.48299,
        "lon": -58.93579,
        "population": 50823,
        "timezone": "America/Argentina/Cordoba"
    },
    {
        "geonameid": 3436199,
        "name": "Azul",
        "ascii": "Azul",
        "country": "AR",
        "lat": -36.77698,
        "lon": -59.85854,
        "population": 53941,
        "timezone": "America/Argentina/Buenos_Aires"
    },
    {
        "geonameid": 3832260,
        "name": "Yerba Buena",
        "ascii": "Yerba Buena",
        "country": "AR",
        "lat": -26.81667,
        "lon": -65.31667,
        "population": 50783,
        "timezone": "America/Argentina/Tucuman"
    },
    {
        "geonameid": 3832694,
        "name": "Villa Mar\u00eda",
        "ascii": "Villa Maria",
        "country": "AR",
        "lat": -32.40751,
        "lon": -63.24016,
        "population": 92453,
        "timezone": "America/Argentina/Cordoba"
    },
    {
        "geonameid": 3832791,
        "name": "Villa Carlos Paz",
        "ascii": "Villa Carlos Paz",
        "country": "AR",
        "lat": -31.42414,
        "lon": -64.49778,
        "population": 69451,
        "timezone": "America/Argentina/Cordoba"
    },
    {
        "geonameid": 3833062,
        "name": "Venado Tuerto",
        "ascii": "Venado Tuerto",
        "country": "AR",
        "lat": -33.74556,
        "lon": -61.96884,
        "population": 72340,
        "timezone": "America/Argentina/Cordoba"
    },
    {
        "geonameid": 3833367,
        "name": "Ushuaia",
        "ascii": "Ushuaia",
        "country": "AR",
        "lat": -54.8,
        "lon": -68.3,
        "population": 58028,
        "timezone": "America/Argentina/Ushuaia"
    },
    {
        "geonameid": 3833883,
        "name": "Trelew",
        "ascii": "Trelew",
        "country": "AR",
        "lat": -43.24895,
        "lon": -65.30505,
        "population": 93442,
        "timezone": "America/Argentina/Catamarca"
    },
    {
        "geonameid": 3834601,
        "name": "Tartagal",
        "ascii": "Tartagal",
        "country": "AR",
        "lat": -22.51636,
        "lon": -63.80131,
        "population": 60819,
        "timezone": "America/Argentina/Salta"
    },
    {
        "geonameid": 3835793,
        "name": "Santo Tom\u00e9",
        "ascii": "Santo Tome",
        "country": "AR",
        "lat": -31.66274,
        "lon": -60.7653,
        "population": 59072,
        "timezone": "America/Argentina/Cordoba"
    },
    {
        "geonameid": 3835869,
        "name": "Santiago del Estero",
        "ascii": "Santiago del Estero",
        "country": "AR",
        "lat": -27.79511,
        "lon": -64.26149,
        "population": 354692,
        "timezone": "America/Argentina/Cordoba"
    },
    {
        "geonameid": 3835994,
        "name": "Santa Rosa",
        "ascii": "Santa Rosa",
        "country": "AR",
        "lat": -36.61667,
        "lon": -64.28333,
        "population": 111424,
        "timezone": "America/Argentina/Salta"
    },
    {
        "geonameid": 3836277,
        "name": "Santa Fe de la Vera Cruz",
        "ascii": "Santa Fe de la Vera Cruz",
        "country": "AR",
        "lat": -31.63333,
        "lon": -60.7,
        "population": 489505,
        "timezone": "America/Argentina/Cordoba"
    },
    {
        "geonameid": 3836564,
        "name": "San Salvador de Jujuy",
        "ascii": "San Salvador de Jujuy",
        "country": "AR",
        "lat": -24.19456,
        "lon": -65.29712,
        "population": 305891,
        "timezone": "America/Argentina/Jujuy"
    },
    {
        "geonameid": 3836620,
        "name": "San Ram\u00f3n de la Nueva Or\u00e1n",
        "ascii": "San Ramon de la Nueva Oran",
        "country": "AR",
        "lat": -23.13705,
        "lon": -64.32426,
        "population": 74059,
        "timezone": "America/Argentina/Salta"
    },
    {
        "geonameid": 3836669,
        "name": "San Rafael",
        "ascii": "San Rafael",
        "country": "AR",
        "lat": -34.61772,
        "lon": -68.33007,
        "population": 109163,
        "timezone": "America/Argentina/Mendoza"
    },
    {
        "geonameid": 3836772,
        "name": "San Pedro",
        "ascii": "San Pedro",
        "country": "AR",
        "lat": -24.23127,
        "lon": -64.86614,
        "population": 58430,
        "timezone": "America/Argentina/Jujuy"
    },
    {
        "geonameid": 3836846,
        "name": "San Nicol\u00e1s de los Arroyos",
        "ascii": "San Nicolas de los Arroyos",
        "country": "AR",
        "lat": -33.33578,
        "lon": -60.22523,
        "population": 127742,
        "timezone": "America/Argentina/Buenos_Aires"
    },
    {
        "geonameid": 3836873,
        "name": "San Miguel de Tucum\u00e1n",
        "ascii": "San Miguel de Tucuman",
        "country": "AR",
        "lat": -26.82414,
        "lon": -65.2226,
        "population": 781023,
        "timezone": "America/Argentina/Tucuman"
    },
    {
        "geonameid": 3836992,
        "name": "San Mart\u00edn",
        "ascii": "San Martin",
        "country": "AR",
        "lat": -33.08103,
        "lon": -68.46814,
        "population": 82549,
        "timezone": "America/Argentina/Mendoza"
    },
    {
        "geonameid": 3837056,
        "name": "San Luis",
        "ascii": "San Luis",
        "country": "AR",
        "lat": -33.29501,
        "lon": -66.33563,
        "population": 183982,
        "timezone": "America/Argentina/San_Luis"
    },
    {
        "geonameid": 3837213,
        "name": "San Juan",
        "ascii": "San Juan",
        "country": "AR",
        "lat": -31.5375,
        "lon": -68.53639,
        "population": 447048,
        "timezone": "America/Argentina/San_Juan"
    },
    {
        "geonameid": 3837675,
        "name": "San Francisco",
        "ascii": "San Francisco",
        "country": "AR",
        "lat": -31.42797,
        "lon": -62.08266,
        "population": 59062,
        "timezone": "America/Argentina/Cordoba"
    },
    {
        "geonameid": 3837702,
        "name": "San Fernando del Valle de Catamarca",
        "ascii": "San Fernando del Valle de Catamarca",
        "country": "AR",
        "lat": -28.46957,
        "lon": -65.78524,
        "population": 188812,
        "timezone": "America/Argentina/Catamarca"
    },
    {
        "geonameid": 3838233,
        "name": "Salta",
        "ascii": "Salta",
        "country": "AR",
        "lat": -24.7859,
        "lon": -65.41166,
        "population": 512686,
        "timezone": "America/Argentina/Salta"
    },
    {
        "geonameid": 3838583,
        "name": "Rosario",
        "ascii": "Rosario",
        "country": "AR",
        "lat": -32.94682,
        "lon": -60.63932,
        "population": 1173533,
        "timezone": "America/Argentina/Cordoba"
    },
    {
        "geonameid": 3838793,
        "name": "R\u00edo Tercero",
        "ascii": "Rio Tercero",
        "country": "AR",
        "lat": -32.17301,
        "lon": -64.11406,
        "population": 53389,
        "timezone": "America/Argentina/Cordoba"
    },
    {
        "geonameid": 3838859,
        "name": "R\u00edo Gallegos",
        "ascii": "Rio Gallegos",
        "country": "AR",
        "lat": -51.62261,
        "lon": -69.21813,
        "population": 85700,
        "timezone": "America/Argentina/Rio_Gallegos"
    },
    {
        "geonameid": 3838874,
        "name": "R\u00edo Cuarto",
        "ascii": "Rio Cuarto",
        "country": "AR",
        "lat": -33.13067,
        "lon": -64.34992,
        "population": 153757,
        "timezone": "America/Argentina/Cordoba"
    },
    {
        "geonameid": 3839479,
        "name": "Rafaela",
        "ascii": "Rafaela",
        "country": "AR",
        "lat": -31.25033,
        "lon": -61.4867,
        "population": 88713,
        "timezone": "America/Argentina/Cordoba"
    },
    {
        "geonameid": 3839982,
        "name": "Punta Alta",
        "ascii": "Punta Alta",
        "country": "AR",
        "lat": -38.87588,
        "lon": -62.07359,
        "population": 57209,
        "timezone": "America/Argentina/Buenos_Aires"
    },
    {
        "geonameid": 3840092,
        "name": "Puerto Madryn",
        "ascii": "Puerto Madryn",
        "country": "AR",
        "lat": -42.7692,
        "lon": -65.03851,
        "population": 64555,
        "timezone": "America/Argentina/Catamarca"
    },
    {
        "geonameid": 3840300,
        "name": "Presidencia Roque S\u00e1enz Pe\u00f1a",
        "ascii": "Presidencia Roque Saenz Pena",
        "country": "AR",
        "lat": -26.78522,
        "lon": -60.43876,
        "population": 81879,
        "timezone": "America/Argentina/Cordoba"
    },
    {
        "geonameid": 3841490,
        "name": "Pergamino",
        "ascii": "Pergamino",
        "country": "AR",
        "lat": -33.88995,
        "lon": -60.57357,
        "population": 87652,
        "timezone": "America/Argentina/Buenos_Aires"
    },
    {
        "geonameid": 3841956,
        "name": "Paran\u00e1",
        "ascii": "Parana",
        "country": "AR",
        "lat": -31.73197,
        "lon": -60.5238,
        "population": 262295,
        "timezone": "America/Argentina/Cordoba"
    },
    {
        "geonameid": 3842670,
        "name": "Olavarr\u00eda",
        "ascii": "Olavarria",
        "country": "AR",
        "lat": -36.89272,
        "lon": -60.32254,
        "population": 86320,
        "timezone": "America/Argentina/Buenos_Aires"
    },
    {
        "geonameid": 3843123,
        "name": "Neuqu\u00e9n",
        "ascii": "Neuquen",
        "country": "AR",
        "lat": -38.95161,
        "lon": -68.0591,
        "population": 242092,
        "timezone": "America/Argentina/Salta"
    },
    {
        "geonameid": 3844421,
        "name": "Mendoza",
        "ascii": "Mendoza",
        "country": "AR",
        "lat": -32.89084,
        "lon": -68.82717,
        "population": 876884,
        "timezone": "America/Argentina/Mendoza"
    },
    {
        "geonameid": 3848950,
        "name": "La Rioja",
        "ascii": "La Rioja",
        "country": "AR",
        "lat": -29.41105,
        "lon": -66.85067,
        "population": 162620,
        "timezone": "America/Argentina/La_Rioja"
    },
    {
        "geonameid": 3853354,
        "name": "Jun\u00edn",
        "ascii": "Junin",
        "country": "AR",
        "lat": -34.58382,
        "lon": -60.94332,
        "population": 85007,
        "timezone": "America/Argentina/Buenos_Aires"
    },
    {
        "geonameid": 3854985,
        "name": "Gobernador G\u00e1lvez",
        "ascii": "Gobernador Galvez",
        "country": "AR",
        "lat": -33.03016,
        "lon": -60.64045,
        "population": 74650,
        "timezone": "America/Argentina/Cordoba"
    },
    {
        "geonameid": 3855065,
        "name": "General Roca",
        "ascii": "General Roca",
        "country": "AR",
        "lat": -39.03333,
        "lon": -67.58333,
        "population": 73212,
        "timezone": "America/Argentina/Salta"
    },
    {
        "geonameid": 3855075,
        "name": "General Pico",
        "ascii": "General Pico",
        "country": "AR",
        "lat": -35.65662,
        "lon": -63.75682,
        "population": 57029,
        "timezone": "America/Argentina/Salta"
    },
    {
        "geonameid": 3860259,
        "name": "C\u00f3rdoba",
        "ascii": "Cordoba",
        "country": "AR",
        "lat": -31.4135,
        "lon": -64.18105,
        "population": 1428214,
        "timezone": "America/Argentina/Cordoba"
    },
    {
        "geonameid": 3860443,
        "name": "Comodoro Rivadavia",
        "ascii": "Comodoro Rivadavia",
        "country": "AR",
        "lat": -45.86414,
        "lon": -67.49656,
        "population": 140850,
        "timezone": "America/Argentina/Catamarca"
    },
    {
        "geonameid": 3861056,
        "name": "Cipolletti",
        "ascii": "Cipolletti",
        "country": "AR",
        "lat": -38.93392,
        "lon": -67.99032,
        "population": 75078,
        "timezone": "America/Argentina/Salta"
    },
    {
        "geonameid": 3861344,
        "name": "Chivilcoy",
        "ascii": "Chivilcoy",
        "country": "AR",
        "lat": -34.89566,
        "lon": -60.01667,
        "population": 54514,
        "timezone": "America/Argentina/Buenos_Aires"
    },
    {
        "geonameid": 3861416,
        "name": "Chimbas",
        "ascii": "Chimbas",
        "country": "AR",
        "lat": -31.48333,
        "lon": -68.53333,
        "population": 73829,
        "timezone": "America/Argentina/San_Juan"
    },
    {
        "geonameid": 3865086,
        "name": "Bah\u00eda Blanca",
        "ascii": "Bahia Blanca",
        "country": "AR",
        "lat": -38.7196,
        "lon": -62.27243,
        "population": 276546,
        "timezone": "America/Argentina/Buenos_Aires"
    },
    {
        "geonameid": 7116866,
        "name": "Villa Mercedes",
        "ascii": "Villa Mercedes",
        "country": "AR",
        "lat": -33.67571,
        "lon": -65.45783,
        "population": 96781,
        "timezone": "America/Argentina/San_Luis"
    },
    {
        "geonameid": 7647007,
        "name": "San Carlos de Bariloche",
        "ascii": "San Carlos de Bariloche",
        "country": "AR",
        "lat": -41.14557,
        "lon": -71.30822,
        "population": 95394,
        "timezone": "America/Argentina/Salta"
    },
    {
        "geonameid": 2761369,
        "name": "Vienna",
        "ascii": "Vienna",
        "country": "AT",
        "lat": 48.20849,
        "lon": 16.37208,
        "population": 1691468,
        "timezone": "Europe/Vienna"
    },
    {
        "geonameid": 2761524,
        "name": "Wels",
        "ascii": "Wels",
        "country": "AT",
        "lat": 48.16667,
        "lon": 14.03333,
        "population": 57946,
        "timezone": "Europe/Vienna"
    },
    {
        "geonameid": 2762372,
        "name": "Villach",
        "ascii": "Villach",
        "country": "AT",
        "lat": 46.61028,
        "lon": 13.85583,
        "population": 58882,
        "timezone": "Europe/Vienna"
    },
    {
        "geonameid": 2766824,
        "name": "Salzburg",
        "ascii": "Salzburg",
        "country": "AT",
        "lat": 47.79941,
        "lon": 13.04399,
        "population": 150269,
        "timezone": "Europe/Vienna"
    },
    {
        "geonameid": 2772400,
        "name": "Linz",
        "ascii": "Linz",
        "country": "AT",
        "lat": 48.30639,
        "lon": 14.28611,
        "population": 181162,
        "timezone": "Europe/Vienna"
    },
    {
        "geonameid": 2774326,
        "name": "Klagenfurt am W\u00f6rthersee",
        "ascii": "Klagenfurt am Woerthersee",
        "country": "AT",
        "lat": 46.62472,
        "lon": 14.30528,
        "population": 90610,
        "timezone": "Europe/Vienna"
    },
    {
        "geonameid": 2775220,
        "name": "Innsbruck",
        "ascii": "Innsbruck",
        "country": "AT",
        "lat": 47.26266,
        "lon": 11.39454,
        "population": 112467,
        "timezone": "Europe/Vienna"
    },
    {
        "geonameid": 2778067,
        "name": "Graz",
        "ascii": "Graz",
        "country": "AT",
        "lat": 47.06667,
        "lon": 15.45,
        "population": 222326,
        "timezone": "Europe/Vienna"
    },
    {
        "geonameid": 2062338,
        "name": "Rockingham",
        "ascii": "Rockingham",
        "country": "AU",
        "lat": -32.27682,
        "lon": 115.72978,
        "population": 108022,
        "timezone": "Australia/Perth"
    },
    {
        "geonameid": 2063523,
        "name": "Perth",
        "ascii": "Perth",
        "country": "AU",
        "lat": -31.95224,
        "lon": 115.8614,
        "population": 1896548,
        "timezone": "Australia/Perth"
    },
    {
        "geonameid": 2067119,
        "name": "Mandurah",
        "ascii": "Mandurah",
        "country": "AU",
        "lat": -32.5269,
        "lon": 115.7217,
        "population": 83294,
        "timezone": "Australia/Perth"
    },
    {
        "geonameid": 2073124,
        "name": "Darwin",
        "ascii": "Darwin",
        "country": "AU",
        "lat": -12.46113,
        "lon": 130.84185,
        "population": 129062,
        "timezone": "Australia/Darwin"
    },
    {
        "geonameid": 2075432,
        "name": "Bunbury",
        "ascii": "Bunbury",
        "country": "AU",
        "lat": -33.32711,
        "lon": 115.64137,
        "population": 68248,
        "timezone": "Australia/Perth"
    },
    {
        "geonameid": 2077579,
        "name": "Armadale",
        "ascii": "Armadale",
        "country": "AU",
        "lat": -32.14607,
        "lon": 116.0093,
        "population": 62296,
        "timezone": "Australia/Perth"
    },
    {
        "geonameid": 2078025,
        "name": "Adelaide",
        "ascii": "Adelaide",
        "country": "AU",
        "lat": -34.92866,
        "lon": 138.59863,
        "population": 1225235,
        "timezone": "Australia/Adelaide"
    },
    {
        "geonameid": 2146142,
        "name": "Townsville",
        "ascii": "Townsville",
        "country": "AU",
        "lat": -19.26639,
        "lon": 146.8057,
        "population": 196219,
        "timezone": "Australia/Brisbane"
    },
    {
        "geonameid": 2146268,
        "name": "Toowoomba",
        "ascii": "Toowoomba",
        "country": "AU",
        "lat": -27.56056,
        "lon": 151.95386,
        "population": 131258,
        "timezone": "Australia/Brisbane"
    },
    {
        "geonameid": 2147714,
        "name": "Sydney",
        "ascii": "Sydney",
        "country": "AU",
        "lat": -33.86785,
        "lon": 151.20732,
        "population": 4627345,
        "timezone": "Australia/Sydney"
    },
    {
        "geonameid": 2151437,
        "name": "Rockhampton",
        "ascii": "Rockhampton",
        "country": "AU",
        "lat": -23.38032,
        "lon": 150.50595,
        "population": 61724,
        "timezone": "Australia/Brisbane"
    },
    {
        "geonameid": 2155472,
        "name": "Newcastle",
        "ascii": "Newcastle",
        "country": "AU",
        "lat": -32.92715,
        "lon": 151.77647,
        "population": 308308,
        "timezone": "Australia/Sydney"
    },
    {
        "geonameid": 2158177,
        "name": "Melbourne",
        "ascii": "Melbourne",
        "country": "AU",
        "lat": -37.814,
        "lon": 144.96332,
        "population": 4246375,
        "timezone": "Australia/Melbourne"
    },
    {
        "geonameid": 2159045,
        "name": "Maitland",
        "ascii": "Maitland",
        "country": "AU",
        "lat": -32.73308,
        "lon": 151.5574,
        "population": 67132,
        "timezone": "Australia/Sydney"
    },
    {
        "geonameid": 2159220,
        "name": "Mackay",
        "ascii": "Mackay",
        "country": "AU",
        "lat": -21.15345,
        "lon": 149.16554,
        "population": 74219,
        "timezone": "Australia/Brisbane"
    },
    {
        "geonameid": 2160517,
        "name": "Launceston",
        "ascii": "Launceston",
        "country": "AU",
        "lat": -41.43876,
        "lon": 147.13467,
        "population": 106153,
        "timezone": "Australia/Hobart"
    },
    {
        "geonameid": 2163355,
        "name": "Hobart",
        "ascii": "Hobart",
        "country": "AU",
        "lat": -42.87936,
        "lon": 147.32941,
        "population": 216656,
        "timezone": "Australia/Hobart"
    },
    {
        "geonameid": 2165087,
        "name": "Gold Coast",
        "ascii": "Gold Coast",
        "country": "AU",
        "lat": -28.00029,
        "lon": 153.43088,
        "population": 591473,
        "timezone": "Australia/Brisbane"
    },
    {
        "geonameid": 2165798,
        "name": "Geelong",
        "ascii": "Geelong",
        "country": "AU",
        "lat": -38.14711,
        "lon": 144.36069,
        "population": 226034,
        "timezone": "Australia/Melbourne"
    },
    {
        "geonameid": 2171507,
        "name": "Wollongong",
        "ascii": "Wollongong",
        "country": "AU",
        "lat": -34.424,
        "lon": 150.89345,
        "population": 292190,
        "timezone": "Australia/Sydney"
    },
    {
        "geonameid": 2172517,
        "name": "Canberra",
        "ascii": "Canberra",
        "country": "AU",
        "lat": -35.28346,
        "lon": 149.12807,
        "population": 367752,
        "timezone": "Australia/Sydney"
    },
    {
        "geonameid": 2172797,
        "name": "Cairns",
        "ascii": "Cairns",
        "country": "AU",
        "lat": -16.92304,
        "lon": 145.76625,
        "population": 153075,
        "timezone": "Australia/Brisbane"
    },
    {
        "geonameid": 2173323,
        "name": "Bundaberg",
        "ascii": "Bundaberg",
        "country": "AU",
        "lat": -24.86621,
        "lon": 152.3479,
        "population": 70826,
        "timezone": "Australia/Brisbane"
    },
    {
        "geonameid": 2174003,
        "name": "Brisbane",
        "ascii": "Brisbane",
        "country": "AU",
        "lat": -27.46794,
        "lon": 153.02809,
        "population": 2189878,
        "timezone": "Australia/Brisbane"
    },
    {
        "geonameid": 2176187,
        "name": "Bendigo",
        "ascii": "Bendigo",
        "country": "AU",
        "lat": -36.75818,
        "lon": 144.28024,
        "population": 100617,
        "timezone": "Australia/Melbourne"
    },
    {
        "geonameid": 2177091,
        "name": "Ballarat",
        "ascii": "Ballarat",
        "country": "AU",
        "lat": -37.56622,
        "lon": 143.84957,
        "population": 97937,
        "timezone": "Australia/Melbourne"
    },
    {
        "geonameid": 2207259,
        "name": "South Brisbane",
        "ascii": "South Brisbane",
        "country": "AU",
        "lat": -27.48333,
        "lon": 153.01667,
        "population": 60000,
        "timezone": "Australia/Brisbane"
    },
    {
        "geonameid": 7281838,
        "name": "Logan City",
        "ascii": "Logan City",
        "country": "AU",
        "lat": -27.63917,
        "lon": 153.10944,
        "population": 282673,
        "timezone": "Australia/Brisbane"
    },
    {
        "geonameid": 7302628,
        "name": "Adelaide Hills",
        "ascii": "Adelaide Hills",
        "country": "AU",
        "lat": -34.91118,
        "lon": 138.70735,
        "population": 60394,
        "timezone": "Australia/Adelaide"
    },
    {
        "geonameid": 146970,
        "name": "Xank\u01ddndi",
        "ascii": "Xank\u01ddndi",
        "country": "AZ",
        "lat": 39.8177,
        "lon": 46.7528,
        "population": 53100,
        "timezone": "Asia/Baku"
    },
    {
        "geonameid": 147288,
        "name": "Saatl\u0131",
        "ascii": "Saatli",
        "country": "AZ",
        "lat": 39.93214,
        "lon": 48.36892,
        "population": 87000,
        "timezone": "Asia/Baku"
    },
    {
        "geonameid": 147429,
        "name": "Nakhchivan",
        "ascii": "Nakhchivan",
        "country": "AZ",
        "lat": 39.20889,
        "lon": 45.41222,
        "population": 64754,
        "timezone": "Asia/Baku"
    },
    {
        "geonameid": 147622,
        "name": "L\u01ddnk\u01ddran",
        "ascii": "L\u01ddnk\u01ddran",
        "country": "AZ",
        "lat": 38.75428,
        "lon": 48.85062,
        "population": 240300,
        "timezone": "Asia/Baku"
    },
    {
        "geonameid": 148565,
        "name": "\u015eirvan",
        "ascii": "Sirvan",
        "country": "AZ",
        "lat": 39.93778,
        "lon": 48.929,
        "population": 70220,
        "timezone": "Asia/Baku"
    },
    {
        "geonameid": 584649,
        "name": "Yevlakh",
        "ascii": "Yevlakh",
        "country": "AZ",
        "lat": 40.61832,
        "lon": 47.15014,
        "population": 59036,
        "timezone": "Asia/Baku"
    },
    {
        "geonameid": 584923,
        "name": "Sumqay\u0131t",
        "ascii": "Sumqayit",
        "country": "AZ",
        "lat": 40.58972,
        "lon": 49.66861,
        "population": 265150,
        "timezone": "Asia/Baku"
    },
    {
        "geonameid": 585103,
        "name": "Qara\u00e7uxur",
        "ascii": "Qaracuxur",
        "country": "AZ",
        "lat": 40.39667,
        "lon": 49.97361,
        "population": 72989,
        "timezone": "Asia/Baku"
    },
    {
        "geonameid": 585170,
        "name": "Sheki",
        "ascii": "Sheki",
        "country": "AZ",
        "lat": 41.19194,
        "lon": 47.17056,
        "population": 63000,
        "timezone": "Asia/Baku"
    },
    {
        "geonameid": 585514,
        "name": "Mingelchaur",
        "ascii": "Mingelchaur",
        "country": "AZ",
        "lat": 40.76395,
        "lon": 47.05953,
        "population": 95453,
        "timezone": "Asia/Baku"
    },
    {
        "geonameid": 586523,
        "name": "Ganja",
        "ascii": "Ganja",
        "country": "AZ",
        "lat": 40.68278,
        "lon": 46.36056,
        "population": 313300,
        "timezone": "Asia/Baku"
    },
    {
        "geonameid": 587084,
        "name": "Baku",
        "ascii": "Baku",
        "country": "AZ",
        "lat": 40.37767,
        "lon": 49.89201,
        "population": 1116513,
        "timezone": "Asia/Baku"
    },
    {
        "geonameid": 824003,
        "name": "Bak\u0131xanov",
        "ascii": "Bakixanov",
        "country": "AZ",
        "lat": 40.41894,
        "lon": 49.96693,
        "population": 66686,
        "timezone": "Asia/Baku"
    },
    {
        "geonameid": 3186573,
        "name": "Zenica",
        "ascii": "Zenica",
        "country": "BA",
        "lat": 44.20169,
        "lon": 17.90397,
        "population": 164423,
        "timezone": "Europe/Sarajevo"
    },
    {
        "geonameid": 3188582,
        "name": "Tuzla",
        "ascii": "Tuzla",
        "country": "BA",
        "lat": 44.53842,
        "lon": 18.66709,
        "population": 142486,
        "timezone": "Europe/Sarajevo"
    },
    {
        "geonameid": 3191281,
        "name": "Sarajevo",
        "ascii": "Sarajevo",
        "country": "BA",
        "lat": 43.84864,
        "lon": 18.35644,
        "population": 696731,
        "timezone": "Europe/Sarajevo"
    },
    {
        "geonameid": 3194828,
        "name": "Mostar",
        "ascii": "Mostar",
        "country": "BA",
        "lat": 43.34333,
        "lon": 17.80806,
        "population": 104518,
        "timezone": "Europe/Sarajevo"
    },
    {
        "geonameid": 3204222,
        "name": "Biha\u0107",
        "ascii": "Bihac",
        "country": "BA",
        "lat": 44.81694,
        "lon": 15.87083,
        "population": 75641,
        "timezone": "Europe/Sarajevo"
    },
    {
        "geonameid": 3204541,
        "name": "Banja Luka",
        "ascii": "Banja Luka",
        "country": "BA",
        "lat": 44.77583,
        "lon": 17.18556,
        "population": 221106,
        "timezone": "Europe/Sarajevo"
    },
    {
        "geonameid": 3374036,
        "name": "Bridgetown",
        "ascii": "Bridgetown",
        "country": "BB",
        "lat": 13.1,
        "lon": -59.61667,
        "population": 98511,
        "timezone": "America/Barbados"
    },
    {
        "geonameid": 1185092,
        "name": "Th\u0101kurgaon",
        "ascii": "Thakurgaon",
        "country": "BD",
        "lat": 26.03097,
        "lon": 88.46989,
        "population": 71096,
        "timezone": "Asia/Dhaka"
    },
    {
        "geonameid": 1185098,
        "name": "Tungi",
        "ascii": "Tungi",
        "country": "BD",
        "lat": 23.89154,
        "lon": 90.40232,
        "population": 337579,
        "timezone": "Asia/Dhaka"
    },
    {
        "geonameid": 1185099,
        "name": "Sylhet",
        "ascii": "Sylhet",
        "country": "BD",
        "lat": 24.89904,
        "lon": 91.87198,
        "population": 237000,
        "timezone": "Asia/Dhaka"
    },
    {
        "geonameid": 1185106,
        "name": "Jam\u0101lpur",
        "ascii": "Jamalpur",
        "country": "BD",
        "lat": 24.91965,
        "lon": 89.94812,
        "population": 167900,
        "timezone": "Asia/Dhaka"
    },
    {
        "geonameid": 1185111,
        "name": "S\u0101tkhira",
        "ascii": "Satkhira",
        "country": "BD",
        "lat": 22.70817,
        "lon": 89.07185,
        "population": 128918,
        "timezone": "Asia/Dhaka"
    },
    {
        "geonameid": 1185115,
        "name": "Sir\u0101jganj",
        "ascii": "Sirajganj",
        "country": "BD",
        "lat": 24.45771,
        "lon": 89.70802,
        "population": 127481,
        "timezone": "Asia/Dhaka"
    },
    {
        "geonameid": 1185116,
        "name": "Netrakona",
        "ascii": "Netrakona",
        "country": "BD",
        "lat": 24.88352,
        "lon": 90.72898,
        "population": 79016,
        "timezone": "Asia/Dhaka"
    },
    {
        "geonameid": 1185117,
        "name": "Narsingdi",
        "ascii": "Narsingdi",
        "country": "BD",
        "lat": 23.92298,
        "lon": 90.71768,
        "population": 281080,
        "timezone": "Asia/Dhaka"
    },
    {
        "geonameid": 1185120,
        "name": "Sandw\u012bp",
        "ascii": "Sandwip",
        "country": "BD",
        "lat": 22.51409,
        "lon": 91.45491,
        "population": 52152,
        "timezone": "Asia/Dhaka"
    },
    {
        "geonameid": 1185121,
        "name": "Sh\u0101hz\u0101dpur",
        "ascii": "Shahzadpur",
        "country": "BD",
        "lat": 24.17687,
        "lon": 89.5988,
        "population": 102420,
        "timezone": "Asia/Dhaka"
    },
    {
        "geonameid": 1185127,
        "name": "R\u0101mganj",
        "ascii": "Ramganj",
        "country": "BD",
        "lat": 23.1006,
        "lon": 90.84989,
        "population": 55241,
        "timezone": "Asia/Dhaka"
    },
    {
        "geonameid": 1185128,
        "name": "R\u0101jsh\u0101hi",
        "ascii": "Rajshahi",
        "country": "BD",
        "lat": 24.374,
        "lon": 88.60114,
        "population": 700133,
        "timezone": "Asia/Dhaka"
    },
    {
        "geonameid": 1185138,
        "name": "Pirojpur",
        "ascii": "Pirojpur",
        "country": "BD",
        "lat": 22.57965,
        "lon": 89.97521,
        "population": 54418,
        "timezone": "Asia/Dhaka"
    },
    {
        "geonameid": 1185148,
        "name": "Patiya",
        "ascii": "Patiya",
        "country": "BD",
        "lat": 22.29543,
        "lon": 91.979,
        "population": 51360,
        "timezone": "Asia/Dhaka"
    },
    {
        "geonameid": 1185155,
        "name": "N\u0101r\u0101yanganj",
        "ascii": "Narayanganj",
        "country": "BD",
        "lat": 23.61352,
        "lon": 90.50298,
        "population": 223622,
        "timezone": "Asia/Dhaka"
    },
    {
        "geonameid": 1185159,
        "name": "N\u0101garpur",
        "ascii": "Nagarpur",
        "country": "BD",
        "lat": 24.05783,
        "lon": 89.87696,
        "population": 238422,
        "timezone": "Asia/Dhaka"
    },
    {
        "geonameid": 1185162,
        "name": "Mymensingh",
        "ascii": "Mymensingh",
        "country": "BD",
        "lat": 24.75636,
        "lon": 90.40646,
        "population": 225126,
        "timezone": "Asia/Dhaka"
    },
    {
        "geonameid": 1185166,
        "name": "Maulavi B\u0101z\u0101r",
        "ascii": "Maulavi Bazar",
        "country": "BD",
        "lat": 24.48888,
        "lon": 91.77075,
        "population": 57441,
        "timezone": "Asia/Dhaka"
    },
    {
        "geonameid": 1185181,
        "name": "Lalmanirhat",
        "ascii": "Lalmanirhat",
        "country": "BD",
        "lat": 25.91719,
        "lon": 89.44595,
        "population": 65127,
        "timezone": "Asia/Dhaka"
    },
    {
        "geonameid": 1185183,
        "name": "L\u0101ksh\u0101m",
        "ascii": "Laksham",
        "country": "BD",
        "lat": 23.24018,
        "lon": 91.12143,
        "population": 82290,
        "timezone": "Asia/Dhaka"
    },
    {
        "geonameid": 1185186,
        "name": "Comilla",
        "ascii": "Comilla",
        "country": "BD",
        "lat": 23.46186,
        "lon": 91.18504,
        "population": 389411,
        "timezone": "Asia/Dhaka"
    },
    {
        "geonameid": 1185188,
        "name": "Rangpur",
        "ascii": "Rangpur",
        "country": "BD",
        "lat": 25.74664,
        "lon": 89.25166,
        "population": 343122,
        "timezone": "Asia/Dhaka"
    },
    {
        "geonameid": 1185191,
        "name": "Kushtia",
        "ascii": "Kushtia",
        "country": "BD",
        "lat": 23.9028,
        "lon": 89.11943,
        "population": 135724,
        "timezone": "Asia/Dhaka"
    },
    {
        "geonameid": 1185206,
        "name": "Joypur H\u0101t",
        "ascii": "Joypur Hat",
        "country": "BD",
        "lat": 25.10147,
        "lon": 89.02734,
        "population": 73068,
        "timezone": "Asia/Dhaka"
    },
    {
        "geonameid": 1185207,
        "name": "Ishurdi",
        "ascii": "Ishurdi",
        "country": "BD",
        "lat": 24.12858,
        "lon": 89.06573,
        "population": 81995,
        "timezone": "Asia/Dhaka"
    },
    {
        "geonameid": 1185209,
        "name": "Habiganj",
        "ascii": "Habiganj",
        "country": "BD",
        "lat": 24.38044,
        "lon": 91.413,
        "population": 88760,
        "timezone": "Asia/Dhaka"
    },
    {
        "geonameid": 1185224,
        "name": "Feni",
        "ascii": "Feni",
        "country": "BD",
        "lat": 23.01134,
        "lon": 91.4013,
        "population": 84028,
        "timezone": "Asia/Dhaka"
    },
    {
        "geonameid": 1185236,
        "name": "R\u0101ipur",
        "ascii": "Raipur",
        "country": "BD",
        "lat": 23.0391,
        "lon": 90.76808,
        "population": 64652,
        "timezone": "Asia/Dhaka"
    },
    {
        "geonameid": 1185241,
        "name": "Dhaka",
        "ascii": "Dhaka",
        "country": "BD",
        "lat": 23.7104,
        "lon": 90.40744,
        "population": 10356500,
        "timezone": "Asia/Dhaka"
    },
    {
        "geonameid": 1185252,
        "name": "Khagrachhari",
        "ascii": "Khagrachhari",
        "country": "BD",
        "lat": 23.10787,
        "lon": 91.97006,
        "population": 50364,
        "timezone": "Asia/Dhaka"
    },
    {
        "geonameid": 1185263,
        "name": "Bhairab B\u0101z\u0101r",
        "ascii": "Bhairab Bazar",
        "country": "BD",
        "lat": 24.0524,
        "lon": 90.9764,
        "population": 105457,
        "timezone": "Asia/Dhaka"
    },
    {
        "geonameid": 1185293,
        "name": "Narail",
        "ascii": "Narail",
        "country": "BD",
        "lat": 23.15509,
        "lon": 89.49515,
        "population": 55112,
        "timezone": "Asia/Dhaka"
    },
    {
        "geonameid": 1185920,
        "name": "Tungip\u0101ra",
        "ascii": "Tungipara",
        "country": "BD",
        "lat": 22.89983,
        "lon": 89.90326,
        "population": 62210,
        "timezone": "Asia/Dhaka"
    },
    {
        "geonameid": 1188569,
        "name": "Sarish\u0101b\u0101ri",
        "ascii": "Sarishabari",
        "country": "BD",
        "lat": 24.75127,
        "lon": 89.83126,
        "population": 81325,
        "timezone": "Asia/Dhaka"
    },
    {
        "geonameid": 1191368,
        "name": "P\u0101lang",
        "ascii": "Palang",
        "country": "BD",
        "lat": 23.21824,
        "lon": 90.35076,
        "population": 67652,
        "timezone": "Asia/Dhaka"
    },
    {
        "geonameid": 1192366,
        "name": "P\u0101r Naogaon",
        "ascii": "Par Naogaon",
        "country": "BD",
        "lat": 24.80418,
        "lon": 88.94875,
        "population": 192464,
        "timezone": "Asia/Dhaka"
    },
    {
        "geonameid": 1196292,
        "name": "Lakshm\u012bpur",
        "ascii": "Lakshmipur",
        "country": "BD",
        "lat": 22.9443,
        "lon": 90.83005,
        "population": 61703,
        "timezone": "Asia/Dhaka"
    },
    {
        "geonameid": 1203344,
        "name": "Far\u012bdpur",
        "ascii": "Faridpur",
        "country": "BD",
        "lat": 23.60612,
        "lon": 89.84064,
        "population": 112187,
        "timezone": "Asia/Dhaka"
    },
    {
        "geonameid": 1203891,
        "name": "Din\u0101jpur",
        "ascii": "Dinajpur",
        "country": "BD",
        "lat": 25.62745,
        "lon": 88.63779,
        "population": 206234,
        "timezone": "Asia/Dhaka"
    },
    {
        "geonameid": 1205733,
        "name": "Chittagong",
        "ascii": "Chittagong",
        "country": "BD",
        "lat": 22.3384,
        "lon": 91.83168,
        "population": 3920222,
        "timezone": "Asia/Dhaka"
    },
    {
        "geonameid": 1336133,
        "name": "S\u0101tkania",
        "ascii": "Satkania",
        "country": "BD",
        "lat": 22.07639,
        "lon": 92.04955,
        "population": 52005,
        "timezone": "Asia/Dhaka"
    },
    {
        "geonameid": 1336134,
        "name": "Cox\u2019s B\u0101z\u0101r",
        "ascii": "Cox's Bazar",
        "country": "BD",
        "lat": 21.45388,
        "lon": 91.96765,
        "population": 253788,
        "timezone": "Asia/Dhaka"
    },
    {
        "geonameid": 1336135,
        "name": "Khulna",
        "ascii": "Khulna",
        "country": "BD",
        "lat": 22.80978,
        "lon": 89.56439,
        "population": 1342339,
        "timezone": "Asia/Dhaka"
    },
    {
        "geonameid": 1336136,
        "name": "Bhola",
        "ascii": "Bhola",
        "country": "BD",
        "lat": 22.68759,
        "lon": 90.64403,
        "population": 99079,
        "timezone": "Asia/Dhaka"
    },
    {
        "geonameid": 1336137,
        "name": "Baris\u0101l",
        "ascii": "Barisal",
        "country": "BD",
        "lat": 22.70497,
        "lon": 90.37013,
        "population": 202242,
        "timezone": "Asia/Dhaka"
    },
    {
        "geonameid": 1336140,
        "name": "Jessore",
        "ascii": "Jessore",
        "country": "BD",
        "lat": 23.16971,
        "lon": 89.21371,
        "population": 243987,
        "timezone": "Asia/Dhaka"
    },
    {
        "geonameid": 1336143,
        "name": "P\u0101bna",
        "ascii": "Pabna",
        "country": "BD",
        "lat": 24.00644,
        "lon": 89.2372,
        "population": 186781,
        "timezone": "Asia/Dhaka"
    },
    {
        "geonameid": 1336144,
        "name": "T\u0101ng\u0101il",
        "ascii": "Tangail",
        "country": "BD",
        "lat": 24.24984,
        "lon": 89.91655,
        "population": 180144,
        "timezone": "Asia/Dhaka"
    },
    {
        "geonameid": 1337233,
        "name": "Bogra",
        "ascii": "Bogra",
        "country": "BD",
        "lat": 24.85098,
        "lon": 89.37108,
        "population": 210000,
        "timezone": "Asia/Dhaka"
    },
    {
        "geonameid": 1337240,
        "name": "Naw\u0101bganj",
        "ascii": "Nawabganj",
        "country": "BD",
        "lat": 24.59025,
        "lon": 88.27444,
        "population": 142361,
        "timezone": "Asia/Dhaka"
    },
    {
        "geonameid": 1337245,
        "name": "M\u0101d\u0101r\u012bpur",
        "ascii": "Madaripur",
        "country": "BD",
        "lat": 23.17097,
        "lon": 90.20935,
        "population": 84789,
        "timezone": "Asia/Dhaka"
    },
    {
        "geonameid": 1337248,
        "name": "Sherpur",
        "ascii": "Sherpur",
        "country": "BD",
        "lat": 25.01881,
        "lon": 90.01751,
        "population": 107419,
        "timezone": "Asia/Dhaka"
    },
    {
        "geonameid": 1337249,
        "name": "Kishorganj",
        "ascii": "Kishorganj",
        "country": "BD",
        "lat": 24.43944,
        "lon": 90.78291,
        "population": 90690,
        "timezone": "Asia/Dhaka"
    },
    {
        "geonameid": 6545349,
        "name": "Saidpur",
        "ascii": "Saidpur",
        "country": "BD",
        "lat": 25.77769,
        "lon": 88.89169,
        "population": 199422,
        "timezone": "Asia/Dhaka"
    },
    {
        "geonameid": 2784821,
        "name": "Verviers",
        "ascii": "Verviers",
        "country": "BE",
        "lat": 50.58907,
        "lon": 5.86241,
        "population": 52824,
        "timezone": "Europe/Brussels"
    },
    {
        "geonameid": 2785341,
        "name": "Tournai",
        "ascii": "Tournai",
        "country": "BE",
        "lat": 50.60715,
        "lon": 3.38932,
        "population": 67721,
        "timezone": "Europe/Brussels"
    },
    {
        "geonameid": 2786578,
        "name": "Sint-Niklaas",
        "ascii": "Sint-Niklaas",
        "country": "BE",
        "lat": 51.16509,
        "lon": 4.1437,
        "population": 69010,
        "timezone": "Europe/Brussels"
    },
    {
        "geonameid": 2786824,
        "name": "Seraing",
        "ascii": "Seraing",
        "country": "BE",
        "lat": 50.58362,
        "lon": 5.50115,
        "population": 60737,
        "timezone": "Europe/Brussels"
    },
    {
        "geonameid": 2787889,
        "name": "Roeselare",
        "ascii": "Roeselare",
        "country": "BE",
        "lat": 50.94653,
        "lon": 3.12269,
        "population": 56016,
        "timezone": "Europe/Brussels"
    },
    {
        "geonameid": 2789786,
        "name": "Oostende",
        "ascii": "Oostende",
        "country": "BE",
        "lat": 51.22339,
        "lon": 2.91185,
        "population": 69011,
        "timezone": "Europe/Brussels"
    },
    {
        "geonameid": 2790471,
        "name": "Namur",
        "ascii": "Namur",
        "country": "BE",
        "lat": 50.4669,
        "lon": 4.86746,
        "population": 106284,
        "timezone": "Europe/Brussels"
    },
    {
        "geonameid": 2790595,
        "name": "Mouscron",
        "ascii": "Mouscron",
        "country": "BE",
        "lat": 50.74497,
        "lon": 3.20639,
        "population": 52069,
        "timezone": "Europe/Brussels"
    },
    {
        "geonameid": 2790869,
        "name": "Mons",
        "ascii": "Mons",
        "country": "BE",
        "lat": 50.45413,
        "lon": 3.95229,
        "population": 91277,
        "timezone": "Europe/Brussels"
    },
    {
        "geonameid": 2791537,
        "name": "Mechelen",
        "ascii": "Mechelen",
        "country": "BE",
        "lat": 51.02574,
        "lon": 4.47762,
        "population": 77530,
        "timezone": "Europe/Brussels"
    },
    {
        "geonameid": 2792413,
        "name": "Li\u00e8ge",
        "ascii": "Liege",
        "country": "BE",
        "lat": 50.63373,
        "lon": 5.56749,
        "population": 182597,
        "timezone": "Europe/Brussels"
    },
    {
        "geonameid": 2792482,
        "name": "Leuven",
        "ascii": "Leuven",
        "country": "BE",
        "lat": 50.87959,
        "lon": 4.70093,
        "population": 92892,
        "timezone": "Europe/Brussels"
    },
    {
        "geonameid": 2793508,
        "name": "La Louvi\u00e8re",
        "ascii": "La Louviere",
        "country": "BE",
        "lat": 50.48657,
        "lon": 4.18785,
        "population": 76668,
        "timezone": "Europe/Brussels"
    },
    {
        "geonameid": 2794055,
        "name": "Kortrijk",
        "ascii": "Kortrijk",
        "country": "BE",
        "lat": 50.82803,
        "lon": 3.26487,
        "population": 73879,
        "timezone": "Europe/Brussels"
    },
    {
        "geonameid": 2796491,
        "name": "Hasselt",
        "ascii": "Hasselt",
        "country": "BE",
        "lat": 50.93106,
        "lon": 5.33781,
        "population": 69222,
        "timezone": "Europe/Brussels"
    },
    {
        "geonameid": 2797656,
        "name": "Gent",
        "ascii": "Gent",
        "country": "BE",
        "lat": 51.05,
        "lon": 3.71667,
        "population": 231493,
        "timezone": "Europe/Brussels"
    },
    {
        "geonameid": 2797670,
        "name": "Genk",
        "ascii": "Genk",
        "country": "BE",
        "lat": 50.965,
        "lon": 5.50082,
        "population": 63666,
        "timezone": "Europe/Brussels"
    },
    {
        "geonameid": 2800481,
        "name": "Charleroi",
        "ascii": "Charleroi",
        "country": "BE",
        "lat": 50.41136,
        "lon": 4.44448,
        "population": 200132,
        "timezone": "Europe/Brussels"
    },
    {
        "geonameid": 2800866,
        "name": "Brussels",
        "ascii": "Brussels",
        "country": "BE",
        "lat": 50.85045,
        "lon": 4.34878,
        "population": 1019022,
        "timezone": "Europe/Brussels"
    },
    {
        "geonameid": 2800931,
        "name": "Brugge",
        "ascii": "Brugge",
        "country": "BE",
        "lat": 51.20892,
        "lon": 3.22424,
        "population": 116709,
        "timezone": "Europe/Brussels"
    },
    {
        "geonameid": 2803138,
        "name": "Antwerpen",
        "ascii": "Antwerpen",
        "country": "BE",
        "lat": 51.21989,
        "lon": 4.40346,
        "population": 459805,
        "timezone": "Europe/Brussels"
    },
    {
        "geonameid": 2803448,
        "name": "Aalst",
        "ascii": "Aalst",
        "country": "BE",
        "lat": 50.93604,
        "lon": 4.0355,
        "population": 77534,
        "timezone": "Europe/Brussels"
    },
    {
        "geonameid": 2357043,
        "name": "Ouahigouya",
        "ascii": "Ouahigouya",
        "country": "BF",
        "lat": 13.58278,
        "lon": -2.42158,
        "population": 61096,
        "timezone": "Africa/Ouagadougou"
    },
    {
        "geonameid": 2357048,
        "name": "Ouagadougou",
        "ascii": "Ouagadougou",
        "country": "BF",
        "lat": 12.36566,
        "lon": -1.53388,
        "population": 1086505,
        "timezone": "Africa/Ouagadougou"
    },
    {
        "geonameid": 2358946,
        "name": "Koudougou",
        "ascii": "Koudougou",
        "country": "BF",
        "lat": 12.25263,
        "lon": -2.36272,
        "population": 87347,
        "timezone": "Africa/Ouagadougou"
    },
    {
        "geonameid": 2362344,
        "name": "Bobo-Dioulasso",
        "ascii": "Bobo-Dioulasso",
        "country": "BF",
        "lat": 11.17715,
        "lon": -4.2979,
        "population": 360106,
        "timezone": "Africa/Ouagadougou"
    },
    {
        "geonameid": 2362909,
        "name": "Banfora",
        "ascii": "Banfora",
        "country": "BF",
        "lat": 10.63333,
        "lon": -4.76667,
        "population": 60288,
        "timezone": "Africa/Ouagadougou"
    },
    {
        "geonameid": 725578,
        "name": "Yambol",
        "ascii": "Yambol",
        "country": "BG",
        "lat": 42.48333,
        "lon": 26.5,
        "population": 80116,
        "timezone": "Europe/Sofia"
    },
    {
        "geonameid": 725712,
        "name": "Vratsa",
        "ascii": "Vratsa",
        "country": "BG",
        "lat": 43.21,
        "lon": 23.5625,
        "population": 64941,
        "timezone": "Europe/Sofia"
    },
    {
        "geonameid": 725905,
        "name": "Vidin",
        "ascii": "Vidin",
        "country": "BG",
        "lat": 43.99,
        "lon": 22.8725,
        "population": 54409,
        "timezone": "Europe/Sofia"
    },
    {
        "geonameid": 725993,
        "name": "Veliko T\u016drnovo",
        "ascii": "Veliko Turnovo",
        "country": "BG",
        "lat": 43.08124,
        "lon": 25.62904,
        "population": 66217,
        "timezone": "Europe/Sofia"
    },
    {
        "geonameid": 726050,
        "name": "Varna",
        "ascii": "Varna",
        "country": "BG",
        "lat": 43.21667,
        "lon": 27.91667,
        "population": 312770,
        "timezone": "Europe/Sofia"
    },
    {
        "geonameid": 726418,
        "name": "Dobrich",
        "ascii": "Dobrich",
        "country": "BG",
        "lat": 43.56667,
        "lon": 27.83333,
        "population": 94831,
        "timezone": "Europe/Sofia"
    },
    {
        "geonameid": 726848,
        "name": "Stara Zagora",
        "ascii": "Stara Zagora",
        "country": "BG",
        "lat": 42.43278,
        "lon": 25.64194,
        "population": 143431,
        "timezone": "Europe/Sofia"
    },
    {
        "geonameid": 727011,
        "name": "Sofia",
        "ascii": "Sofia",
        "country": "BG",
        "lat": 42.69751,
        "lon": 23.32415,
        "population": 1152556,
        "timezone": "Europe/Sofia"
    },
    {
        "geonameid": 727079,
        "name": "Sliven",
        "ascii": "Sliven",
        "country": "BG",
        "lat": 42.68583,
        "lon": 26.32917,
        "population": 96368,
        "timezone": "Europe/Sofia"
    },
    {
        "geonameid": 727233,
        "name": "Shumen",
        "ascii": "Shumen",
        "country": "BG",
        "lat": 43.27064,
        "lon": 26.92286,
        "population": 87283,
        "timezone": "Europe/Sofia"
    },
    {
        "geonameid": 727523,
        "name": "Ruse",
        "ascii": "Ruse",
        "country": "BG",
        "lat": 43.85639,
        "lon": 25.97083,
        "population": 156238,
        "timezone": "Europe/Sofia"
    },
    {
        "geonameid": 728193,
        "name": "Plovdiv",
        "ascii": "Plovdiv",
        "country": "BG",
        "lat": 42.15,
        "lon": 24.75,
        "population": 340494,
        "timezone": "Europe/Sofia"
    },
    {
        "geonameid": 728203,
        "name": "Pleven",
        "ascii": "Pleven",
        "country": "BG",
        "lat": 43.41667,
        "lon": 24.61667,
        "population": 118675,
        "timezone": "Europe/Sofia"
    },
    {
        "geonameid": 728330,
        "name": "Pernik",
        "ascii": "Pernik",
        "country": "BG",
        "lat": 42.6,
        "lon": 23.03333,
        "population": 82467,
        "timezone": "Europe/Sofia"
    },
    {
        "geonameid": 728378,
        "name": "Pazardzhik",
        "ascii": "Pazardzhik",
        "country": "BG",
        "lat": 42.2,
        "lon": 24.33333,
        "population": 75977,
        "timezone": "Europe/Sofia"
    },
    {
        "geonameid": 729794,
        "name": "K\u016drdzhali",
        "ascii": "Kurdzhali",
        "country": "BG",
        "lat": 41.65,
        "lon": 25.36667,
        "population": 51000,
        "timezone": "Europe/Sofia"
    },
    {
        "geonameid": 730435,
        "name": "Haskovo",
        "ascii": "Haskovo",
        "country": "BG",
        "lat": 41.93415,
        "lon": 25.55557,
        "population": 79699,
        "timezone": "Europe/Sofia"
    },
    {
        "geonameid": 730496,
        "name": "Kazanl\u016dk",
        "ascii": "Kazanluk",
        "country": "BG",
        "lat": 42.61667,
        "lon": 25.4,
        "population": 55196,
        "timezone": "Europe/Sofia"
    },
    {
        "geonameid": 731549,
        "name": "Gabrovo",
        "ascii": "Gabrovo",
        "country": "BG",
        "lat": 42.87472,
        "lon": 25.33417,
        "population": 66175,
        "timezone": "Europe/Sofia"
    },
    {
        "geonameid": 732770,
        "name": "Burgas",
        "ascii": "Burgas",
        "country": "BG",
        "lat": 42.50606,
        "lon": 27.46781,
        "population": 195966,
        "timezone": "Europe/Sofia"
    },
    {
        "geonameid": 733191,
        "name": "Blagoevgrad",
        "ascii": "Blagoevgrad",
        "country": "BG",
        "lat": 42.01667,
        "lon": 23.1,
        "population": 71306,
        "timezone": "Europe/Sofia"
    },
    {
        "geonameid": 733618,
        "name": "Asenovgrad",
        "ascii": "Asenovgrad",
        "country": "BG",
        "lat": 42.01667,
        "lon": 24.86667,
        "population": 52170,
        "timezone": "Europe/Sofia"
    },
    {
        "geonameid": 290247,
        "name": "Mad\u012bnat \u1e28amad",
        "ascii": "Madinat Hamad",
        "country": "BH",
        "lat": 26.11528,
        "lon": 50.50694,
        "population": 52718,
        "timezone": "Asia/Bahrain"
    },
    {
        "geonameid": 290269,
        "name": "D\u0101r Kulayb",
        "ascii": "Dar Kulayb",
        "country": "BH",
        "lat": 26.06861,
        "lon": 50.50389,
        "population": 65466,
        "timezone": "Asia/Bahrain"
    },
    {
        "geonameid": 290332,
        "name": "Al Muharraq",
        "ascii": "Al Muharraq",
        "country": "BH",
        "lat": 26.25722,
        "lon": 50.61194,
        "population": 97458,
        "timezone": "Asia/Bahrain"
    },
    {
        "geonameid": 290340,
        "name": "Manama",
        "ascii": "Manama",
        "country": "BH",
        "lat": 26.21536,
        "lon": 50.5832,
        "population": 147074,
        "timezone": "Asia/Bahrain"
    },
    {
        "geonameid": 385038,
        "name": "Ar Rif\u0101\u2018",
        "ascii": "Ar Rifa'",
        "country": "BH",
        "lat": 26.13,
        "lon": 50.555,
        "population": 79550,
        "timezone": "Asia/Bahrain"
    },
    {
        "geonameid": 425378,
        "name": "Bujumbura",
        "ascii": "Bujumbura",
        "country": "BI",
        "lat": -3.3822,
        "lon": 29.3644,
        "population": 331700,
        "timezone": "Africa/Bujumbura"
    },
    {
        "geonameid": 431748,
        "name": "Muyinga",
        "ascii": "Muyinga",
        "country": "BI",
        "lat": -2.8451,
        "lon": 30.3414,
        "population": 71076,
        "timezone": "Africa/Bujumbura"
    },
    {
        "geonameid": 2391893,
        "name": "Sav\u00e9",
        "ascii": "Save",
        "country": "BJ",
        "lat": 8.03424,
        "lon": 2.4866,
        "population": 75970,
        "timezone": "Africa/Porto-Novo"
    },
    {
        "geonameid": 2392087,
        "name": "Porto-Novo",
        "ascii": "Porto-Novo",
        "country": "BJ",
        "lat": 6.49646,
        "lon": 2.60359,
        "population": 234168,
        "timezone": "Africa/Porto-Novo"
    },
    {
        "geonameid": 2392204,
        "name": "Parakou",
        "ascii": "Parakou",
        "country": "BJ",
        "lat": 9.33716,
        "lon": 2.63031,
        "population": 163753,
        "timezone": "Africa/Porto-Novo"
    },
    {
        "geonameid": 2392308,
        "name": "Ouidah",
        "ascii": "Ouidah",
        "country": "BJ",
        "lat": 6.36307,
        "lon": 2.08506,
        "population": 83503,
        "timezone": "Africa/Porto-Novo"
    },
    {
        "geonameid": 2392505,
        "name": "Nikki",
        "ascii": "Nikki",
        "country": "BJ",
        "lat": 9.94009,
        "lon": 3.21075,
        "population": 54009,
        "timezone": "Africa/Porto-Novo"
    },
    {
        "geonameid": 2392601,
        "name": "Natitingou",
        "ascii": "Natitingou",
        "country": "BJ",
        "lat": 10.30416,
        "lon": 1.37962,
        "population": 80892,
        "timezone": "Africa/Porto-Novo"
    },
    {
        "geonameid": 2392897,
        "name": "Lokossa",
        "ascii": "Lokossa",
        "country": "BJ",
        "lat": 6.63869,
        "lon": 1.71674,
        "population": 86971,
        "timezone": "Africa/Porto-Novo"
    },
    {
        "geonameid": 2393693,
        "name": "Kandi",
        "ascii": "Kandi",
        "country": "BJ",
        "lat": 11.13417,
        "lon": 2.93861,
        "population": 109701,
        "timezone": "Africa/Porto-Novo"
    },
    {
        "geonameid": 2394560,
        "name": "Djougou",
        "ascii": "Djougou",
        "country": "BJ",
        "lat": 9.70853,
        "lon": 1.66598,
        "population": 237040,
        "timezone": "Africa/Porto-Novo"
    },
    {
        "geonameid": 2394819,
        "name": "Cotonou",
        "ascii": "Cotonou",
        "country": "BJ",
        "lat": 6.36536,
        "lon": 2.41833,
        "population": 690584,
        "timezone": "Africa/Porto-Novo"
    },
    {
        "geonameid": 2395049,
        "name": "Bohicon",
        "ascii": "Bohicon",
        "country": "BJ",
        "lat": 7.17826,
        "lon": 2.0667,
        "population": 125092,
        "timezone": "Africa/Porto-Novo"
    },
    {
        "geonameid": 2395914,
        "name": "Abomey-Calavi",
        "ascii": "Abomey-Calavi",
        "country": "BJ",
        "lat": 6.44852,
        "lon": 2.35566,
        "population": 385755,
        "timezone": "Africa/Porto-Novo"
    },
    {
        "geonameid": 2395915,
        "name": "Abomey",
        "ascii": "Abomey",
        "country": "BJ",
        "lat": 7.18286,
        "lon": 1.99119,
        "population": 82154,
        "timezone": "Africa/Porto-Novo"
    },
    {
        "geonameid": 1820906,
        "name": "Bandar Seri Begawan",
        "ascii": "Bandar Seri Begawan",
        "country": "BN",
        "lat": 4.94029,
        "lon": 114.94806,
        "population": 64409,
        "timezone": "Asia/Brunei"
    },
    {
        "geonameid": 3901178,
        "name": "Yacuiba",
        "ascii": "Yacuiba",
        "country": "BO",
        "lat": -22.03799,
        "lon": -63.67968,
        "population": 82803,
        "timezone": "America/La_Paz"
    },
    {
        "geonameid": 3902377,
        "name": "La Santisima Trinidad",
        "ascii": "La Santisima Trinidad",
        "country": "BO",
        "lat": -14.83333,
        "lon": -64.9,
        "population": 84259,
        "timezone": "America/La_Paz"
    },
    {
        "geonameid": 3903320,
        "name": "Tarija",
        "ascii": "Tarija",
        "country": "BO",
        "lat": -21.53549,
        "lon": -64.72956,
        "population": 159269,
        "timezone": "America/La_Paz"
    },
    {
        "geonameid": 3903987,
        "name": "Sucre",
        "ascii": "Sucre",
        "country": "BO",
        "lat": -19.03332,
        "lon": -65.26274,
        "population": 224838,
        "timezone": "America/La_Paz"
    },
    {
        "geonameid": 3904906,
        "name": "Santa Cruz de la Sierra",
        "ascii": "Santa Cruz de la Sierra",
        "country": "BO",
        "lat": -17.78629,
        "lon": -63.18117,
        "population": 1364389,
        "timezone": "America/La_Paz"
    },
    {
        "geonameid": 3906466,
        "name": "Riberalta",
        "ascii": "Riberalta",
        "country": "BO",
        "lat": -11.00654,
        "lon": -66.06312,
        "population": 74014,
        "timezone": "America/La_Paz"
    },
    {
        "geonameid": 3907584,
        "name": "Potos\u00ed",
        "ascii": "Potosi",
        "country": "BO",
        "lat": -19.58361,
        "lon": -65.75306,
        "population": 141251,
        "timezone": "America/La_Paz"
    },
    {
        "geonameid": 3909234,
        "name": "Oruro",
        "ascii": "Oruro",
        "country": "BO",
        "lat": -17.98333,
        "lon": -67.15,
        "population": 208684,
        "timezone": "America/La_Paz"
    },
    {
        "geonameid": 3910027,
        "name": "Montero",
        "ascii": "Montero",
        "country": "BO",
        "lat": -17.33866,
        "lon": -63.2505,
        "population": 88616,
        "timezone": "America/La_Paz"
    },
    {
        "geonameid": 3911925,
        "name": "La Paz",
        "ascii": "La Paz",
        "country": "BO",
        "lat": -16.5,
        "lon": -68.15,
        "population": 812799,
        "timezone": "America/La_Paz"
    },
    {
        "geonameid": 3919968,
        "name": "Cochabamba",
        "ascii": "Cochabamba",
        "country": "BO",
        "lat": -17.3895,
        "lon": -66.1568,
        "population": 900414,
        "timezone": "America/La_Paz"
    },
    {
        "geonameid": 3384987,
        "name": "Vit\u00f3ria de Santo Ant\u00e3o",
        "ascii": "Vitoria de Santo Antao",
        "country": "BR",
        "lat": -8.11806,
        "lon": -35.29139,
        "population": 107383,
        "timezone": "America/Recife"
    },
    {
        "geonameid": 3385935,
        "name": "Tucuru\u00ed",
        "ascii": "Tucurui",
        "country": "BR",
        "lat": -3.76611,
        "lon": -49.6725,
        "population": 76337,
        "timezone": "America/Belem"
    },
    {
        "geonameid": 3386361,
        "name": "Timon",
        "ascii": "Timon",
        "country": "BR",
        "lat": -5.09417,
        "lon": -42.83667,
        "population": 124427,
        "timezone": "America/Fortaleza"
    },
    {
        "geonameid": 3386496,
        "name": "Teresina",
        "ascii": "Teresina",
        "country": "BR",
        "lat": -5.08917,
        "lon": -42.80194,
        "population": 744512,
        "timezone": "America/Fortaleza"
    },
    {
        "geonameid": 3387296,
        "name": "Sobral",
        "ascii": "Sobral",
        "country": "BR",
        "lat": -3.68611,
        "lon": -40.34972,
        "population": 157996,
        "timezone": "America/Fortaleza"
    },
    {
        "geonameid": 3387786,
        "name": "Serra Talhada",
        "ascii": "Serra Talhada",
        "country": "BR",
        "lat": -7.99194,
        "lon": -38.29833,
        "population": 51203,
        "timezone": "America/Recife"
    },
    {
        "geonameid": 3388368,
        "name": "S\u00e3o Lu\u00eds",
        "ascii": "Sao Luis",
        "country": "BR",
        "lat": -2.52972,
        "lon": -44.30278,
        "population": 917237,
        "timezone": "America/Fortaleza"
    },
    {
        "geonameid": 3388376,
        "name": "S\u00e3o Louren\u00e7o da Mata",
        "ascii": "Sao Lourenco da Mata",
        "country": "BR",
        "lat": -8.00222,
        "lon": -35.01833,
        "population": 88416,
        "timezone": "America/Recife"
    },
    {
        "geonameid": 3389321,
        "name": "Santa Rita",
        "ascii": "Santa Rita",
        "country": "BR",
        "lat": -7.11389,
        "lon": -34.97806,
        "population": 119893,
        "timezone": "America/Fortaleza"
    },
    {
        "geonameid": 3389353,
        "name": "Santar\u00e9m",
        "ascii": "Santarem",
        "country": "BR",
        "lat": -2.44306,
        "lon": -54.70833,
        "population": 189047,
        "timezone": "America/Santarem"
    },
    {
        "geonameid": 3389609,
        "name": "Santa In\u00eas",
        "ascii": "Santa Ines",
        "country": "BR",
        "lat": -3.66667,
        "lon": -45.38,
        "population": 67424,
        "timezone": "America/Fortaleza"
    },
    {
        "geonameid": 3389652,
        "name": "Santa Cruz do Capibaribe",
        "ascii": "Santa Cruz do Capibaribe",
        "country": "BR",
        "lat": -7.9575,
        "lon": -36.20472,
        "population": 76450,
        "timezone": "America/Recife"
    },
    {
        "geonameid": 3390288,
        "name": "Rio Largo",
        "ascii": "Rio Largo",
        "country": "BR",
        "lat": -9.47833,
        "lon": -35.85333,
        "population": 63387,
        "timezone": "America/Maceio"
    },
    {
        "geonameid": 3390760,
        "name": "Recife",
        "ascii": "Recife",
        "country": "BR",
        "lat": -8.05389,
        "lon": -34.88111,
        "population": 1478098,
        "timezone": "America/Recife"
    },
    {
        "geonameid": 3391360,
        "name": "Santana",
        "ascii": "Santana",
        "country": "BR",
        "lat": -0.05833,
        "lon": -51.18167,
        "population": 83927,
        "timezone": "America/Belem"
    },
    {
        "geonameid": 3392167,
        "name": "Picos",
        "ascii": "Picos",
        "country": "BR",
        "lat": -7.07694,
        "lon": -41.46694,
        "population": 57495,
        "timezone": "America/Fortaleza"
    },
    {
        "geonameid": 3392242,
        "name": "Petrolina",
        "ascii": "Petrolina",
        "country": "BR",
        "lat": -9.39861,
        "lon": -40.50083,
        "population": 194650,
        "timezone": "America/Recife"
    },
    {
        "geonameid": 3392734,
        "name": "Paulo Afonso",
        "ascii": "Paulo Afonso",
        "country": "BR",
        "lat": -9.40611,
        "lon": -38.21472,
        "population": 85350,
        "timezone": "America/Bahia"
    },
    {
        "geonameid": 3392740,
        "name": "Paulista",
        "ascii": "Paulista",
        "country": "BR",
        "lat": -7.94083,
        "lon": -34.87306,
        "population": 289971,
        "timezone": "America/Recife"
    },
    {
        "geonameid": 3392887,
        "name": "Patos",
        "ascii": "Patos",
        "country": "BR",
        "lat": -7.02444,
        "lon": -37.28,
        "population": 92575,
        "timezone": "America/Fortaleza"
    },
    {
        "geonameid": 3392998,
        "name": "Parnamirim",
        "ascii": "Parnamirim",
        "country": "BR",
        "lat": -5.91556,
        "lon": -35.26278,
        "population": 150343,
        "timezone": "America/Fortaleza"
    },
    {
        "geonameid": 3393001,
        "name": "Parna\u00edba",
        "ascii": "Parnaiba",
        "country": "BR",
        "lat": -2.90472,
        "lon": -41.77667,
        "population": 138008,
        "timezone": "America/Fortaleza"
    },
    {
        "geonameid": 3393008,
        "name": "Parintins",
        "ascii": "Parintins",
        "country": "BR",
        "lat": -2.62833,
        "lon": -56.73583,
        "population": 64428,
        "timezone": "America/Manaus"
    },
    {
        "geonameid": 3393106,
        "name": "Paragominas",
        "ascii": "Paragominas",
        "country": "BR",
        "lat": -2.96667,
        "lon": -47.48333,
        "population": 69613,
        "timezone": "America/Belem"
    },
    {
        "geonameid": 3393400,
        "name": "Pacatuba",
        "ascii": "Pacatuba",
        "country": "BR",
        "lat": -3.98417,
        "lon": -38.62028,
        "population": 55291,
        "timezone": "America/Fortaleza"
    },
    {
        "geonameid": 3393536,
        "name": "Olinda",
        "ascii": "Olinda",
        "country": "BR",
        "lat": -8.00889,
        "lon": -34.85528,
        "population": 366754,
        "timezone": "America/Recife"
    },
    {
        "geonameid": 3394023,
        "name": "Natal",
        "ascii": "Natal",
        "country": "BR",
        "lat": -5.795,
        "lon": -35.20944,
        "population": 763043,
        "timezone": "America/Fortaleza"
    },
    {
        "geonameid": 3394682,
        "name": "Mossor\u00f3",
        "ascii": "Mossoro",
        "country": "BR",
        "lat": -5.1875,
        "lon": -37.34417,
        "population": 202005,
        "timezone": "America/Fortaleza"
    },
    {
        "geonameid": 3395395,
        "name": "Marechal Deodoro",
        "ascii": "Marechal Deodoro",
        "country": "BR",
        "lat": -9.71028,
        "lon": -35.895,
        "population": 50571,
        "timezone": "America/Maceio"
    },
    {
        "geonameid": 3395473,
        "name": "Maracana\u00fa",
        "ascii": "Maracanau",
        "country": "BR",
        "lat": -3.87667,
        "lon": -38.62556,
        "population": 193529,
        "timezone": "America/Fortaleza"
    },
    {
        "geonameid": 3395503,
        "name": "Marab\u00e1",
        "ascii": "Maraba",
        "country": "BR",
        "lat": -5.36861,
        "lon": -49.11778,
        "population": 145860,
        "timezone": "America/Belem"
    },
    {
        "geonameid": 3395981,
        "name": "Macei\u00f3",
        "ascii": "Maceio",
        "country": "BR",
        "lat": -9.66583,
        "lon": -35.73528,
        "population": 954991,
        "timezone": "America/Maceio"
    },
    {
        "geonameid": 3396016,
        "name": "Macap\u00e1",
        "ascii": "Macapa",
        "country": "BR",
        "lat": 0.03889,
        "lon": -51.06639,
        "population": 338936,
        "timezone": "America/Belem"
    },
    {
        "geonameid": 3397147,
        "name": "Juazeiro do Norte",
        "ascii": "Juazeiro do Norte",
        "country": "BR",
        "lat": -7.21306,
        "lon": -39.31528,
        "population": 225230,
        "timezone": "America/Fortaleza"
    },
    {
        "geonameid": 3397277,
        "name": "Jo\u00e3o Pessoa",
        "ascii": "Joao Pessoa",
        "country": "BR",
        "lat": -7.115,
        "lon": -34.86306,
        "population": 650883,
        "timezone": "America/Fortaleza"
    },
    {
        "geonameid": 3397838,
        "name": "Jaboat\u00e3o",
        "ascii": "Jaboatao",
        "country": "BR",
        "lat": -8.18028,
        "lon": -35.00139,
        "population": 702621,
        "timezone": "America/Recife"
    },
    {
        "geonameid": 3397893,
        "name": "Itacoatiara",
        "ascii": "Itacoatiara",
        "country": "BR",
        "lat": -3.14306,
        "lon": -58.44417,
        "population": 64937,
        "timezone": "America/Manaus"
    },
    {
        "geonameid": 3397909,
        "name": "Itapipoca",
        "ascii": "Itapipoca",
        "country": "BR",
        "lat": -3.49444,
        "lon": -39.57861,
        "population": 55784,
        "timezone": "America/Fortaleza"
    },
    {
        "geonameid": 3397967,
        "name": "Itaituba",
        "ascii": "Itaituba",
        "country": "BR",
        "lat": -4.27611,
        "lon": -55.98361,
        "population": 64756,
        "timezone": "America/Santarem"
    },
    {
        "geonameid": 3398115,
        "name": "Ipojuca",
        "ascii": "Ipojuca",
        "country": "BR",
        "lat": -8.39889,
        "lon": -35.06389,
        "population": 53364,
        "timezone": "America/Recife"
    },
    {
        "geonameid": 3398269,
        "name": "Imperatriz",
        "ascii": "Imperatriz",
        "country": "BR",
        "lat": -5.52639,
        "lon": -47.49167,
        "population": 218106,
        "timezone": "America/Fortaleza"
    },
    {
        "geonameid": 3398331,
        "name": "Iguatu",
        "ascii": "Iguatu",
        "country": "BR",
        "lat": -6.35944,
        "lon": -39.29861,
        "population": 70380,
        "timezone": "America/Fortaleza"
    },
    {
        "geonameid": 3398352,
        "name": "Igarassu",
        "ascii": "Igarassu",
        "country": "BR",
        "lat": -7.83417,
        "lon": -34.90639,
        "population": 86457,
        "timezone": "America/Recife"
    },
    {
        "geonameid": 3398450,
        "name": "Horizonte",
        "ascii": "Horizonte",
        "country": "BR",
        "lat": -4.1,
        "lon": -38.48333,
        "population": 51171,
        "timezone": "America/Fortaleza"
    },
    {
        "geonameid": 3398691,
        "name": "Gravat\u00e1",
        "ascii": "Gravata",
        "country": "BR",
        "lat": -8.20111,
        "lon": -35.56472,
        "population": 61249,
        "timezone": "America/Recife"
    },
    {
        "geonameid": 3399058,
        "name": "Garanhuns",
        "ascii": "Garanhuns",
        "country": "BR",
        "lat": -8.89028,
        "lon": -36.49278,
        "population": 110085,
        "timezone": "America/Recife"
    },
    {
        "geonameid": 3399415,
        "name": "Fortaleza",
        "ascii": "Fortaleza",
        "country": "BR",
        "lat": -3.71722,
        "lon": -38.54306,
        "population": 2400000,
        "timezone": "America/Fortaleza"
    },
    {
        "geonameid": 3401545,
        "name": "Crato",
        "ascii": "Crato",
        "country": "BR",
        "lat": -7.23417,
        "lon": -39.40944,
        "population": 88786,
        "timezone": "America/Fortaleza"
    },
    {
        "geonameid": 3401548,
        "name": "Crate\u00fas",
        "ascii": "Crateus",
        "country": "BR",
        "lat": -5.17833,
        "lon": -40.6775,
        "population": 52933,
        "timezone": "America/Fortaleza"
    },
    {
        "geonameid": 3402000,
        "name": "Cod\u00f3",
        "ascii": "Codo",
        "country": "BR",
        "lat": -4.45528,
        "lon": -43.88556,
        "population": 83288,
        "timezone": "America/Fortaleza"
    },
    {
        "geonameid": 3402383,
        "name": "Caxias",
        "ascii": "Caxias",
        "country": "BR",
        "lat": -4.85889,
        "lon": -43.35611,
        "population": 148072,
        "timezone": "America/Fortaleza"
    },
    {
        "geonameid": 3402429,
        "name": "Caucaia",
        "ascii": "Caucaia",
        "country": "BR",
        "lat": -3.73611,
        "lon": -38.65306,
        "population": 275019,
        "timezone": "America/Fortaleza"
    },
    {
        "geonameid": 3402591,
        "name": "Castanhal",
        "ascii": "Castanhal",
        "country": "BR",
        "lat": -1.29389,
        "lon": -47.92639,
        "population": 137406,
        "timezone": "America/Belem"
    },
    {
        "geonameid": 3402613,
        "name": "Cascavel",
        "ascii": "Cascavel",
        "country": "BR",
        "lat": -4.13306,
        "lon": -38.24194,
        "population": 52357,
        "timezone": "America/Fortaleza"
    },
    {
        "geonameid": 3402655,
        "name": "Caruaru",
        "ascii": "Caruaru",
        "country": "BR",
        "lat": -8.28333,
        "lon": -35.97611,
        "population": 235371,
        "timezone": "America/Recife"
    },
    {
        "geonameid": 3402721,
        "name": "Carpina",
        "ascii": "Carpina",
        "country": "BR",
        "lat": -7.85083,
        "lon": -35.25472,
        "population": 70689,
        "timezone": "America/Recife"
    },
    {
        "geonameid": 3403642,
        "name": "Campina Grande",
        "ascii": "Campina Grande",
        "country": "BR",
        "lat": -7.23056,
        "lon": -35.88111,
        "population": 348936,
        "timezone": "America/Fortaleza"
    },
    {
        "geonameid": 3404117,
        "name": "Caic\u00f3",
        "ascii": "Caico",
        "country": "BR",
        "lat": -6.45833,
        "lon": -37.09778,
        "population": 54934,
        "timezone": "America/Fortaleza"
    },
    {
        "geonameid": 3404545,
        "name": "Cabo",
        "ascii": "Cabo",
        "country": "BR",
        "lat": -8.28333,
        "lon": -35.03333,
        "population": 143105,
        "timezone": "America/Recife"
    },
    {
        "geonameid": 3404558,
        "name": "Cabedelo",
        "ascii": "Cabedelo",
        "country": "BR",
        "lat": -6.98111,
        "lon": -34.83389,
        "population": 54839,
        "timezone": "America/Fortaleza"
    },
    {
        "geonameid": 3405006,
        "name": "Bragan\u00e7a",
        "ascii": "Braganca",
        "country": "BR",
        "lat": -1.05361,
        "lon": -46.76556,
        "population": 57163,
        "timezone": "America/Belem"
    },
    {
        "geonameid": 3405738,
        "name": "Bezerros",
        "ascii": "Bezerros",
        "country": "BR",
        "lat": -8.23333,
        "lon": -35.79694,
        "population": 51436,
        "timezone": "America/Recife"
    },
    {
        "geonameid": 3405870,
        "name": "Bel\u00e9m",
        "ascii": "Belem",
        "country": "BR",
        "lat": -1.45583,
        "lon": -48.50444,
        "population": 1407737,
        "timezone": "America/Belem"
    },
    {
        "geonameid": 3405940,
        "name": "Bayeux",
        "ascii": "Bayeux",
        "country": "BR",
        "lat": -7.125,
        "lon": -34.93222,
        "population": 91056,
        "timezone": "America/Fortaleza"
    },
    {
        "geonameid": 3406545,
        "name": "Balsas",
        "ascii": "Balsas",
        "country": "BR",
        "lat": -7.5325,
        "lon": -46.03556,
        "population": 68056,
        "timezone": "America/Fortaleza"
    },
    {
        "geonameid": 3406910,
        "name": "Bacabal",
        "ascii": "Bacabal",
        "country": "BR",
        "lat": -4.29167,
        "lon": -44.79167,
        "population": 72372,
        "timezone": "America/Fortaleza"
    },
    {
        "geonameid": 3407216,
        "name": "Arcoverde",
        "ascii": "Arcoverde",
        "country": "BR",
        "lat": -8.41889,
        "lon": -37.05389,
        "population": 57163,
        "timezone": "America/Recife"
    },
    {
        "geonameid": 3407327,
        "name": "Arapiraca",
        "ascii": "Arapiraca",
        "country": "BR",
        "lat": -9.7525,
        "lon": -36.66111,
        "population": 166562,
        "timezone": "America/Maceio"
    },
    {
        "geonameid": 3407357,
        "name": "Aragua\u00edna",
        "ascii": "Araguaina",
        "country": "BR",
        "lat": -7.19111,
        "lon": -48.20722,
        "population": 105019,
        "timezone": "America/Araguaina"
    },
    {
        "geonameid": 3407407,
        "name": "Aquiraz",
        "ascii": "Aquiraz",
        "country": "BR",
        "lat": -3.90139,
        "lon": -38.39111,
        "population": 65116,
        "timezone": "America/Fortaleza"
    },
    {
        "geonameid": 3407669,
        "name": "Ananindeua",
        "ascii": "Ananindeua",
        "country": "BR",
        "lat": -1.36556,
        "lon": -48.37222,
        "population": 433956,
        "timezone": "America/Belem"
    },
    {
        "geonameid": 3407882,
        "name": "Altamira",
        "ascii": "Altamira",
        "country": "BR",
        "lat": -3.20333,
        "lon": -52.20639,
        "population": 70888,
        "timezone": "America/Santarem"
    },
    {
        "geonameid": 3408404,
        "name": "Abreu e Lima",
        "ascii": "Abreu e Lima",
        "country": "BR",
        "lat": -7.91167,
        "lon": -34.90278,
        "population": 81959,
        "timezone": "America/Recife"
    },
    {
        "geonameid": 3408424,
        "name": "Abaetetuba",
        "ascii": "Abaetetuba",
        "country": "BR",
        "lat": -1.71806,
        "lon": -48.8825,
        "population": 78050,
        "timezone": "America/Belem"
    },
    {
        "geonameid": 3444864,
        "name": "Votuporanga",
        "ascii": "Votuporanga",
        "country": "BR",
        "lat": -20.42278,
        "lon": -49.97278,
        "population": 69863,
        "timezone": "America/Sao_Paulo"
    },
    {
        "geonameid": 3444866,
        "name": "Votorantim",
        "ascii": "Votorantim",
        "country": "BR",
        "lat": -23.54667,
        "lon": -47.43778,
        "population": 99390,
        "timezone": "America/Sao_Paulo"
    },
    {
        "geonameid": 3444876,
        "name": "Volta Redonda",
        "ascii": "Volta Redonda",
        "country": "BR",
        "lat": -22.52306,
        "lon": -44.10417,
        "population": 249580,
        "timezone": "America/Sao_Paulo"
    },
    {
        "geonameid": 3444914,
        "name": "Vit\u00f3ria da Conquista",
        "ascii": "Vitoria da Conquista",
        "country": "BR",
        "lat": -14.86611,
        "lon": -40.83944,
        "population": 253137,
        "timezone": "America/Bahia"
    },
    {
        "geonameid": 3444924,
        "name": "Vit\u00f3ria",
        "ascii": "Vitoria",
        "country": "BR",
        "lat": -20.31944,
        "lon": -40.33778,
        "population": 312656,
        "timezone": "America/Sao_Paulo"
    },
    {
        "geonameid": 3445014,
        "name": "Vinhedo",
        "ascii": "Vinhedo",
        "country": "BR",
        "lat": -23.02972,
        "lon": -46.97528,
        "population": 56492,
        "timezone": "America/Sao_Paulo"
    },
    {
        "geonameid": 3445026,
        "name": "Vila Velha",
        "ascii": "Vila Velha",
        "country": "BR",
        "lat": -20.32972,
        "lon": -40.2925,
        "population": 394930,
        "timezone": "America/Sao_Paulo"
    },
    {
        "geonameid": 3445133,
        "name": "Vi\u00e7osa",
        "ascii": "Vicosa",
        "country": "BR",
        "lat": -20.75389,
        "lon": -42.88194,
        "population": 68680,
        "timezone": "America/Sao_Paulo"
    },
    {
        "geonameid": 3445153,
        "name": "Viana",
        "ascii": "Viana",
        "country": "BR",
        "lat": -20.39028,
        "lon": -40.49611,
        "population": 55122,
        "timezone": "America/Sao_Paulo"
    },
    {
        "geonameid": 3445156,
        "name": "Viam\u00e3o",
        "ascii": "Viamao",
        "country": "BR",
        "lat": -30.08111,
        "lon": -51.02333,
        "population": 285269,
        "timezone": "America/Sao_Paulo"
    },
    {
        "geonameid": 3445162,
        "name": "Vespasiano",
        "ascii": "Vespasiano",
        "country": "BR",
        "lat": -19.69194,
        "lon": -43.92333,
        "population": 94749,
        "timezone": "America/Sao_Paulo"
    },
    {
        "geonameid": 3445446,
        "name": "V\u00e1rzea Paulista",
        "ascii": "Varzea Paulista",
        "country": "BR",
        "lat": -23.21139,
        "lon": -46.82833,
        "population": 110936,
        "timezone": "America/Sao_Paulo"
    },